City_ID,City,Country,Lat,Lng,Max Temp,Humidity,Cloudiness,Wind Speed,Current Description
0,Asau,RO,46.4333,26.4,51.28,80,88,1.12,light rain
1,Tuktoyaktuk,CA,69.4541,-133.0374,24.8,93,75,4.61,broken clouds
2,Qaanaaq,GL,77.484,-69.3632,-0.54,69,0,8.77,clear sky
3,Rawson,AR,-43.3002,-65.1023,77.86,28,50,7.23,scattered clouds
4,Batemans Bay,AU,-35.7167,150.1833,60.1,87,100,2.53,overcast clouds
5,Vaini,TO,-21.2,-175.2,78.96,78,75,8.05,broken clouds
6,Waingapu,ID,-9.6567,120.2641,80.1,81,100,1.77,overcast clouds
7,Kapaa,US,22.0752,-159.319,73.09,91,100,19.57,moderate rain
8,Ruwi,OM,23.5996,58.5507,78.49,34,63,2.64,broken clouds
9,Albac,RO,46.45,22.9667,47.01,90,46,3.58,scattered clouds
10,Saldanha,ZA,-33.0117,17.9442,64.45,92,74,11.23,broken clouds
11,Clyde River,CA,70.4692,-68.5914,14.23,73,40,5.75,scattered clouds
12,Rikitea,PF,-23.1203,-134.9692,69.46,75,100,17.92,overcast clouds
13,Slave Lake,CA,55.2834,-114.769,57.18,51,0,4.61,clear sky
14,Ushuaia,AR,-54.8,-68.3,51.42,76,75,19.57,broken clouds
15,Naze,JP,28.3667,129.4833,70.72,62,8,19.93,clear sky
16,Samarai,PG,-10.6167,150.6667,82.13,79,34,13.91,scattered clouds
17,Raudeberg,NO,61.9875,5.1352,41.95,66,100,3.04,overcast clouds
18,Hobart,AU,-42.8794,147.3294,50.25,85,20,4.61,few clouds
19,Yanam,IN,16.7333,82.2167,76.62,90,38,4.88,scattered clouds
20,Chuy,UY,-33.6971,-53.4616,65.17,81,8,11.61,clear sky
21,Hithadhoo,MV,-0.6,73.0833,80.58,76,96,8.32,overcast clouds
22,Broken Hill,AU,-31.95,141.4333,59.99,97,100,12.41,overcast clouds
23,Amahai,ID,-3.3333,128.9167,78.64,86,96,3.78,overcast clouds
24,Ambunti,PG,-4.2365,142.8448,71.96,98,100,0.69,overcast clouds
25,Pandan,PH,14.0453,124.1694,78.17,85,85,3.62,overcast clouds
26,Boca Do Acre,BR,-8.7522,-67.3978,91.35,47,100,1.95,overcast clouds
27,Cherskiy,RU,68.75,161.3,19.96,94,100,7.49,overcast clouds
28,Busselton,AU,-33.65,115.3333,57.38,85,93,7.36,overcast clouds
29,Bethel,US,41.3712,-73.414,53.69,52,75,10.36,broken clouds
30,Joensuu,FI,62.6012,29.7632,36.09,93,0,4.61,clear sky
31,Penhold,CA,52.1334,-113.8687,75.0,22,0,3.44,clear sky
32,Mizdah,LY,31.4451,12.9801,63.32,70,15,7.99,light rain
33,Bathsheba,BB,13.2167,-59.5167,86.61,74,40,13.8,scattered clouds
34,Saint-Augustin,CA,51.226,-58.6502,54.19,76,93,9.22,overcast clouds
35,Auchel,FR,50.5034,2.4735,61.2,86,99,12.86,overcast clouds
36,Arraial Do Cabo,BR,-22.9661,-42.0278,73.26,88,100,11.5,moderate rain
37,Upernavik,GL,72.7868,-56.1549,20.86,89,100,1.99,light snow
38,East London,ZA,-33.0153,27.9116,74.34,89,79,13.89,broken clouds
39,Mahebourg,MU,-20.4081,57.7,70.09,64,20,4.61,few clouds
40,New Norfolk,AU,-42.7826,147.0587,50.92,65,77,2.28,broken clouds
41,Herat,AF,34.5,62.0,46.18,79,0,8.05,clear sky
42,Leningradskiy,RU,69.3833,178.4167,29.12,93,100,23.38,overcast clouds
43,Cabo San Lucas,MX,22.8909,-109.9124,89.62,61,20,9.22,few clouds
44,Sri Aman,MY,1.2376,111.4621,75.25,100,100,0.0,overcast clouds
45,Castro,BR,-24.7911,-50.0119,70.41,81,2,4.59,clear sky
46,Faanui,PF,-16.4833,-151.75,77.68,77,4,7.38,light rain
47,Mataura,NZ,-46.1927,168.8643,46.24,76,70,6.42,broken clouds
48,Chokurdakh,RU,70.6333,147.9167,-7.2,100,100,2.26,overcast clouds
49,Antofagasta,CL,-23.65,-70.4,61.88,69,25,9.48,scattered clouds
50,Tuatapere,NZ,-46.1333,167.6833,45.46,79,43,7.11,scattered clouds
51,Galveston,US,29.3669,-94.9669,70.18,30,0,8.05,clear sky
52,Plettenberg Bay,ZA,-34.0527,23.3716,67.19,88,45,12.59,scattered clouds
53,Raton,US,36.9034,-104.4391,71.94,17,0,5.75,clear sky
54,Axim,GH,4.8699,-2.2405,77.83,85,43,6.46,scattered clouds
55,Balakliya,UA,49.4627,36.8595,50.97,92,100,3.83,overcast clouds
56,Cape Town,ZA,-33.9258,18.4232,66.34,79,75,9.22,broken clouds
57,Butaritari,KI,3.0707,172.7902,81.32,71,100,14.9,overcast clouds
58,Fairbanks,US,64.8378,-147.7164,34.92,93,100,3.44,fog
59,Punta Arenas,CL,-53.15,-70.9167,51.82,81,75,31.07,light intensity shower rain
60,Vila Franca Do Campo,PT,37.7167,-25.4333,66.61,79,100,21.9,light rain
61,Fortuna,US,40.5982,-124.1573,63.52,77,0,11.5,clear sky
62,Olafsvik,IS,64.8945,-23.7142,44.65,83,100,19.26,overcast clouds
63,Albany,US,42.6001,-73.9662,50.41,56,96,1.01,overcast clouds
64,Zonguldak,TR,41.25,31.8333,54.27,97,100,1.5,overcast clouds
65,Ketchikan,US,55.3422,-131.6461,55.87,82,100,9.22,overcast clouds
66,Tasiilaq,GL,65.6145,-37.6368,33.96,89,100,4.83,overcast clouds
67,Tiksi,RU,71.6872,128.8694,15.1,89,99,9.28,overcast clouds
68,Norman Wells,CA,65.282,-126.8329,32.04,100,100,10.36,overcast clouds
69,Hermanus,ZA,-34.4187,19.2345,64.8,92,100,15.14,overcast clouds
70,Puerto Del Rosario,ES,28.5004,-13.8627,74.95,73,0,5.75,clear sky
71,Atuona,PF,-9.8,-139.0333,77.04,66,2,15.03,clear sky
72,Goldsboro,US,35.3849,-77.9928,60.71,29,0,14.97,clear sky
73,Mar Del Plata,AR,-38.0023,-57.5575,64.09,96,75,13.8,broken clouds
74,Maracas,BR,-13.4411,-40.4308,74.21,48,81,11.65,broken clouds
75,Tres Picos,MX,15.8667,-93.5333,83.79,80,83,10.49,light rain
76,Rock Sound,BS,24.9,-76.2,82.2,74,100,8.9,moderate rain
77,Torbay,CA,47.6666,-52.7314,58.28,94,75,9.22,broken clouds
78,Bayonet Point,US,28.3267,-82.6834,68.14,45,6,5.99,clear sky
79,Sanmenxia,CN,34.7747,111.1814,52.21,43,6,8.68,clear sky
80,Kiruna,SE,67.8557,20.2251,38.32,75,20,6.91,few clouds
81,Arrifes,PT,37.7667,-25.7,64.65,77,40,23.02,scattered clouds
82,Georgetown,MY,5.4112,100.3354,78.73,86,20,0.0,few clouds
83,Florian,CO,5.8049,-73.9703,68.31,89,95,2.3,overcast clouds
84,Ratnagiri,IN,16.9833,73.3,77.9,87,79,2.93,broken clouds
85,Saint-Philippe,RE,-21.3585,55.7679,69.39,72,42,8.86,scattered clouds
86,Nome,US,64.5011,-165.4064,35.67,87,100,13.8,overcast clouds
87,Pisco,PE,-13.7,-76.2167,66.25,68,0,8.05,clear sky
88,Vardo,NO,70.3705,31.1107,37.38,56,75,32.21,broken clouds
89,Sarangani,PH,5.4033,125.4636,83.55,75,100,9.35,overcast clouds
90,Lethem,GY,3.3803,-59.7968,82.65,74,99,10.07,light rain
91,Chapais,CA,49.7834,-74.8492,38.98,72,100,4.27,overcast clouds
92,Viransehir,TR,37.2353,39.7631,71.98,40,69,6.73,broken clouds
93,Sapa,PH,5.1544,120.3241,80.38,81,100,4.54,very heavy rain
94,Barcelos,PT,41.5388,-8.6151,62.85,89,0,12.03,light rain
95,Hilo,US,19.7297,-155.09,87.28,65,40,6.91,scattered clouds
96,La Sarre,CA,48.8002,-79.1996,38.05,87,100,6.67,light rain
97,Pacific Grove,US,36.6177,-121.9166,95.65,21,0,8.05,smoke
98,Aksu,CN,41.1231,80.2644,57.34,21,99,5.23,overcast clouds
99,Tura,IN,25.5198,90.2201,67.41,75,6,4.83,clear sky
100,Yellowknife,CA,62.456,-114.3525,43.32,93,75,18.01,broken clouds
101,Sinnamary,GF,5.3833,-52.95,80.94,80,79,10.02,broken clouds
102,Lagoa Santa,BR,-19.6272,-43.8897,82.62,47,20,10.36,few clouds
103,Blagoyevo,RU,63.3667,47.9167,34.63,86,100,8.9,overcast clouds
104,San Cristobal,VE,7.7669,-72.225,78.98,77,91,3.4,overcast clouds
105,Manaure,CO,11.7751,-72.4445,88.16,60,66,13.69,broken clouds
106,Yeppoon,AU,-23.1333,150.7333,69.58,89,98,11.34,light rain
107,Uvira,CD,-3.4067,29.1458,73.06,88,100,11.1,moderate rain
108,Maniitsoq,GL,65.4167,-52.9,27.05,68,42,15.59,scattered clouds
109,Maningrida,AU,-12.0667,134.2667,80.26,79,82,3.58,broken clouds
110,Kondinskoye,RU,59.6481,67.41,38.39,93,98,6.96,overcast clouds
111,Carnarvon,AU,-24.8667,113.6333,65.21,84,5,9.93,clear sky
112,Nanortalik,GL,60.1432,-45.2371,36.09,86,70,30.82,broken clouds
113,Kavieng,PG,-2.5744,150.7967,82.63,76,99,12.03,overcast clouds
114,Liverpool,GB,53.4106,-2.9779,55.35,78,0,10.36,clear sky
115,Lebu,CL,-37.6167,-73.65,55.49,80,44,8.43,scattered clouds
116,Jamestown,US,42.097,-79.2353,40.01,78,100,16.11,overcast clouds
117,Batsfjord,NO,70.6345,29.7185,37.33,64,75,31.07,broken clouds
118,Caravelas,BR,-17.7125,-39.2481,74.77,76,43,8.08,scattered clouds
119,Thompson,CA,55.7435,-97.8558,44.76,65,40,10.36,scattered clouds
120,Parfenyevo,RU,58.484,43.4088,38.48,86,100,4.7,overcast clouds
121,Luderitz,NA,-26.6481,15.1594,60.37,90,14,14.63,few clouds
122,Bluff,NZ,-46.6,168.3333,49.64,67,91,24.52,overcast clouds
123,Oltu,TR,40.5498,42.0013,57.56,65,74,7.14,broken clouds
124,Kodiak,US,57.79,-152.4072,49.51,53,0,8.05,clear sky
125,Bredasdorp,ZA,-34.5322,20.0403,62.17,86,100,10.67,overcast clouds
126,Chumikan,RU,54.7183,135.315,34.39,73,98,16.46,overcast clouds
127,Manono,CD,-7.3,27.4167,72.09,82,100,2.1,overcast clouds
128,Brae,GB,60.3964,-1.353,45.01,65,100,6.85,overcast clouds
129,Belmonte,BR,-15.8631,-38.8828,74.88,79,6,7.74,clear sky
130,Longyearbyen,SJ,78.2186,15.6401,26.44,59,40,20.71,scattered clouds
131,Ribeira Grande,PT,38.5167,-28.7,66.6,82,40,18.41,light intensity shower rain
132,Bambous Virieux,MU,-20.3428,57.7575,70.05,64,20,4.61,few clouds
133,Hualmay,PE,-11.0964,-77.6139,65.34,75,61,13.31,broken clouds
134,Puerto Ayora,EC,-0.7393,-90.3518,75.16,84,99,7.0,overcast clouds
135,Marsa Matruh,EG,31.3525,27.2453,70.0,78,20,4.61,few clouds
136,Dikson,RU,73.5069,80.5464,32.36,99,100,16.55,light snow
137,Abeche,TD,13.8292,20.8324,84.99,27,5,1.5,clear sky
138,Kashi,CN,39.4547,75.9797,58.21,30,99,8.95,overcast clouds
139,Erzin,TR,36.9559,36.2,66.65,82,4,1.81,clear sky
140,Coromandel,BR,-18.4733,-47.2003,82.31,33,95,1.92,overcast clouds
141,Labuhan,ID,-6.8844,112.2051,78.12,87,98,4.85,light rain
142,Ambovombe,MG,-25.1667,46.0833,68.49,86,2,8.68,clear sky
143,Kirakira,SB,-10.4544,161.9205,82.8,79,35,6.24,scattered clouds
144,Morgantown,US,39.6295,-79.9559,44.2,89,100,9.22,overcast clouds
145,Quatre Cocos,MU,-20.2078,57.7625,69.91,73,52,12.15,broken clouds
146,Merauke,ID,-8.4667,140.3333,77.32,88,100,5.84,moderate rain
147,Romny,UA,50.751,33.4747,47.46,83,87,9.98,overcast clouds
148,Omboue,GA,-1.5746,9.2618,77.07,89,93,9.37,light rain
149,Olinda,BR,-8.0089,-34.8553,80.33,65,40,12.66,scattered clouds
150,Touros,BR,-5.1989,-35.4608,79.03,74,40,18.14,scattered clouds
151,Nikolskoye,RU,59.7035,30.7861,39.09,87,90,4.72,overcast clouds
152,Esperance,AU,-33.8667,121.9,65.05,49,30,19.71,scattered clouds
153,Geraldton,AU,-28.7667,114.6,61.21,88,100,3.44,overcast clouds
154,Guerrero Negro,MX,27.9769,-114.0611,86.83,32,5,4.36,clear sky
155,Ambulu,ID,-8.345,113.6058,74.93,93,100,2.3,overcast clouds
156,Meulaboh,ID,4.1363,96.1285,75.2,88,100,2.84,overcast clouds
157,Hasaki,JP,35.7333,140.8333,54.28,52,0,15.32,clear sky
158,Mount Gambier,AU,-37.8333,140.7667,49.91,93,40,6.91,scattered clouds
159,Beringovskiy,RU,63.05,179.3167,35.96,85,9,9.13,clear sky
160,Avera,US,33.194,-82.5271,64.54,26,0,9.93,clear sky
161,Vallenar,CL,-28.5708,-70.7581,71.44,23,0,9.28,clear sky
162,Vilhena,BR,-12.7406,-60.1458,86.22,62,40,6.91,scattered clouds
163,Chany,RU,55.3121,76.7647,42.24,66,100,10.29,overcast clouds
164,New London,US,41.4834,-72.0662,55.15,51,40,8.05,scattered clouds
165,Campo De Criptana,ES,39.4046,-3.1249,65.07,62,100,6.17,overcast clouds
166,Lata,PT,40.1629,-8.3327,64.81,95,9,4.97,clear sky
167,Wenling,CN,28.3669,121.36,55.72,80,89,8.34,overcast clouds
168,Lompoc,US,34.6391,-120.4579,96.78,25,0,12.66,clear sky
169,Sioux Lookout,CA,50.1001,-91.917,37.47,48,75,6.91,broken clouds
170,Waipawa,NZ,-41.4122,175.5153,55.49,56,4,4.97,clear sky
171,Verkh-Chebula,RU,56.0308,87.6218,38.1,86,94,8.39,overcast clouds
172,Alice Springs,AU,-23.7,133.8833,54.95,94,0,0.0,clear sky
173,Pine Bluff,US,34.2284,-92.0032,59.05,25,0,11.99,clear sky
174,Koraput,IN,18.8167,82.7167,65.39,95,29,4.09,scattered clouds
175,Salalah,OM,17.0151,54.0924,77.09,65,0,4.61,clear sky
176,Vestmannaeyjar,IS,63.4427,-20.2734,44.85,72,100,9.37,overcast clouds
177,Narsaq,GL,60.9167,-46.05,41.22,70,27,17.47,scattered clouds
178,Mountain Home,US,43.133,-115.6912,65.68,26,0,0.0,clear sky
179,Grand Gaube,MU,-20.0064,57.6608,70.2,74,29,1.99,scattered clouds
180,Semnan,IR,35.5729,53.3971,62.44,39,0,0.0,clear sky
181,Constitucion,CL,-35.3333,-72.4167,57.96,79,8,10.54,clear sky
182,Cockburn Town,TC,21.4612,-71.1419,83.12,74,12,8.37,few clouds
183,Banjarmasin,ID,-3.3244,114.591,75.34,94,100,2.46,overcast clouds
184,Kazachinskoye,RU,57.6953,93.2761,36.32,97,100,2.98,overcast clouds
185,Quelimane,MZ,-17.8786,36.8883,76.95,83,40,4.61,scattered clouds
186,Ndioum,SN,16.5129,-14.6471,96.66,21,0,5.73,clear sky
187,Sitka,US,57.0531,-135.33,53.49,76,100,14.97,moderate rain
188,Qaqortoq,GL,60.7167,-46.0333,37.11,77,26,34.0,scattered clouds
189,Dengzhou,CN,37.8086,120.7508,52.09,58,95,8.79,overcast clouds
190,Baykit,RU,61.67,96.37,32.9,92,100,2.62,overcast clouds
191,Shakhtinsk,KZ,49.71,72.5872,42.1,72,100,26.78,overcast clouds
192,Chippewa Falls,US,44.9369,-91.3929,47.17,46,0,12.66,clear sky
193,Kaitangata,NZ,-46.2817,169.8464,51.42,52,97,10.02,overcast clouds
194,San Patricio,US,28.017,-97.5169,74.17,22,0,7.23,clear sky
195,Khatanga,RU,71.9667,102.5,19.44,96,100,8.12,light snow
196,Worland,US,44.0169,-107.9554,72.75,24,0,1.99,clear sky
197,Grindavik,IS,63.8424,-22.4338,41.47,93,100,11.5,overcast clouds
198,Muli,MV,2.9167,73.5667,81.3,76,100,13.0,overcast clouds
199,Tazovskiy,RU,67.4667,78.7,36.63,88,100,18.79,overcast clouds
200,Gamba,GA,-2.65,10.0,76.95,86,95,8.12,overcast clouds
201,Swellendam,ZA,-34.0226,20.4417,62.94,90,48,4.56,scattered clouds
202,Terekli-Mekteb,RU,44.1671,45.8698,58.44,84,90,5.23,overcast clouds
203,Severo-Kurilsk,RU,50.6789,156.125,40.51,65,76,32.99,light rain
204,Dombarovskiy,RU,50.7587,59.5386,51.37,71,100,17.22,light rain
205,Hambantota,LK,6.1241,81.1185,78.75,82,100,14.94,overcast clouds
206,Polewali,ID,-3.4324,119.3435,76.37,88,100,3.38,overcast clouds
207,Victoria,HK,22.2855,114.1577,75.38,63,85,15.99,overcast clouds
208,Tabory,RU,58.5198,64.5495,35.74,88,99,4.83,overcast clouds
209,Lorengau,PG,-2.0226,147.2712,82.15,71,100,6.44,overcast clouds
210,Shimoda,JP,34.6667,138.95,54.1,67,0,11.81,clear sky
211,Enshi,CN,30.3,109.4833,51.49,76,10,0.49,clear sky
212,Ahuimanu,US,21.4447,-157.8378,84.61,61,40,9.22,scattered clouds
213,Airai,TL,-8.9266,125.4092,62.78,88,89,0.58,overcast clouds
214,Codrington,AU,-38.2667,141.9667,51.1,95,12,7.65,few clouds
215,Shizuishan,CN,39.2333,106.7694,55.49,63,100,5.32,overcast clouds
216,Barrow,US,71.2906,-156.7887,26.62,80,100,5.75,overcast clouds
217,Manzanillo,CU,20.3433,-77.1167,82.87,75,94,5.08,overcast clouds
218,Sao Joao Da Barra,BR,-21.6403,-41.0511,77.09,83,83,21.94,broken clouds
219,Saskylakh,RU,71.9167,114.0833,3.51,94,94,4.92,overcast clouds
220,Coihaique,CL,-45.5752,-72.0662,57.81,62,75,5.75,light intensity shower rain
221,Wilson,US,36.1501,-86.2833,59.5,28,0,5.75,clear sky
222,Los Algarrobos,PA,8.5,-82.4333,81.01,78,75,8.05,moderate rain
223,Buta,CD,2.7858,24.73,69.93,99,100,1.14,overcast clouds
224,Rocha,UY,-34.4833,-54.3333,64.63,83,27,10.42,scattered clouds
225,Cidreira,BR,-30.1811,-50.2056,65.5,90,27,7.67,scattered clouds
226,Myaundzha,RU,63.0494,147.1858,-9.44,97,78,3.13,broken clouds
227,Husavik,IS,66.0449,-17.3389,34.52,77,100,10.02,overcast clouds
228,Shache,CN,38.4167,77.2406,52.72,37,100,16.6,overcast clouds
229,Port Alfred,ZA,-33.5906,26.891,73.15,86,51,11.77,broken clouds
230,Ancud,CL,-41.8697,-73.8203,61.23,84,97,10.27,overcast clouds
231,Vila,PT,42.0304,-8.1588,50.88,92,28,6.64,scattered clouds
232,Suaza,CO,1.9761,-75.7945,78.13,72,100,3.47,overcast clouds
233,Praia,CV,14.9215,-23.5087,79.34,78,20,10.36,few clouds
234,Hervey Bay,AU,-25.2986,152.8535,68.02,94,100,10.0,overcast clouds
235,Toora-Khem,RU,52.4675,96.11,23.61,96,84,1.54,broken clouds
236,Lakselv,NO,70.0513,24.9718,35.42,64,75,29.93,broken clouds
237,Hanna,CA,51.6334,-111.9018,71.85,20,79,7.0,broken clouds
238,Drama,GR,41.1544,24.1394,60.67,35,0,4.72,clear sky
239,Farafangana,MG,-22.8167,47.8333,70.48,88,64,8.41,light rain
240,Port Blair,IN,11.6667,92.75,80.04,79,92,9.08,overcast clouds
241,Karoi,ZW,-16.8099,29.6925,69.04,43,8,4.27,clear sky
242,Port Elizabeth,ZA,-33.918,25.5701,77.09,81,20,4.61,few clouds
243,Balkanabat,TM,39.5108,54.3671,62.94,39,0,9.24,clear sky
244,Pangoa,PE,-12.1167,-73.0,81.79,59,82,3.06,broken clouds
245,Ibra,OM,22.6906,58.5334,72.9,38,99,2.66,overcast clouds
246,Padang,ID,-0.9492,100.3543,71.65,86,100,2.95,overcast clouds
247,Hargeysa,SO,9.56,44.065,69.6,58,11,1.95,few clouds
248,Verkhneyarkeyevo,RU,55.4505,54.3145,41.56,90,100,2.44,overcast clouds
249,Hirado,JP,33.3597,129.5531,63.23,60,0,15.73,clear sky
250,Prince Rupert,CA,54.3161,-130.3201,55.49,85,100,13.8,overcast clouds
251,Zabid,YE,14.1951,43.3152,85.77,53,0,3.0,clear sky
252,Kushima,JP,31.4583,131.2333,57.47,75,0,8.84,clear sky
253,Avarua,CK,-21.2078,-159.775,80.65,65,40,18.41,scattered clouds
254,Tahoua,NE,14.8888,5.2692,87.78,27,0,2.3,clear sky
255,Fallon,US,39.4735,-118.7774,75.45,13,40,0.0,scattered clouds
256,Tevriz,RU,57.509,72.4042,39.94,91,100,5.3,overcast clouds
257,Mulhouse,FR,47.6667,7.4167,61.34,96,0,4.61,clear sky
258,Singkang,MY,2.1006,102.7994,75.07,90,99,1.88,overcast clouds
259,Maldonado,UY,-34.6667,-54.9167,70.99,76,85,10.85,overcast clouds
260,Los Llanos De Aridane,ES,28.6585,-17.9182,69.55,84,75,4.0,broken clouds
261,Great Yarmouth,GB,52.6083,1.7305,57.45,75,76,22.64,broken clouds
262,Cervo,ES,43.6702,-7.4101,60.96,70,63,9.57,broken clouds
263,Nishihara,JP,26.1842,127.7558,73.06,73,100,21.85,overcast clouds
264,Tucurui,BR,-3.7661,-49.6725,88.97,45,60,3.15,broken clouds
265,Sola,VU,-13.8833,167.55,79.47,89,73,0.0,broken clouds
266,Flinders,AU,-34.5833,150.8552,64.06,91,100,4.0,overcast clouds
267,Zhigansk,RU,66.7697,123.3711,12.63,94,100,6.96,overcast clouds
268,Churapcha,RU,62.0025,132.4325,19.45,97,100,3.6,light snow
269,Bandarbeyla,SO,9.4942,50.8122,78.48,85,90,10.51,overcast clouds
270,Faya,SA,18.3851,42.4509,59.52,46,0,5.21,clear sky
271,Kommunisticheskiy,RU,61.6789,64.4819,33.64,93,53,5.75,broken clouds
272,San Andres,CO,12.5847,-81.7006,89.62,62,20,8.05,few clouds
273,Port Hardy,CA,50.6996,-127.4199,55.58,94,100,2.3,light intensity shower rain
274,Barsovo,RU,61.1667,73.1667,39.33,88,100,11.01,overcast clouds
275,Asyut,EG,27.181,31.1837,71.78,40,0,7.05,clear sky
276,Ponta Do Sol,PT,32.6667,-17.1,74.03,77,100,10.29,overcast clouds
277,Shelburne,CA,44.0787,-80.2041,40.77,96,100,11.92,light rain
278,Berlevag,NO,70.8578,29.0864,35.6,80,75,32.21,broken clouds
279,Port Lincoln,AU,-34.7333,135.8667,57.2,89,38,10.49,scattered clouds
280,Dingle,PH,10.9995,122.6711,76.26,89,100,2.39,moderate rain
281,Bafq,IR,31.6128,55.4107,66.49,35,0,2.62,clear sky
282,Tigil,RU,57.8,158.6667,23.18,93,98,9.82,overcast clouds
283,Clifton,US,40.8584,-74.1638,55.47,50,100,16.11,overcast clouds
284,Xiongyue,CN,40.1774,122.1228,51.76,70,17,11.86,few clouds
285,Marsh Harbour,BS,26.5412,-77.0636,77.72,79,100,17.27,overcast clouds
286,Apple Valley,US,34.5008,-117.1859,84.9,25,0,17.38,clear sky
287,Goderich,CA,43.7501,-81.7165,42.91,87,100,19.57,light rain
288,Jibuti,DJ,11.5,42.5,75.61,59,0,9.91,clear sky
289,Rossland,CA,49.0831,-117.8022,62.91,20,55,3.56,broken clouds
290,Cururupu,BR,-1.8283,-44.8683,79.16,78,69,5.86,broken clouds
291,Koungou,YT,-12.7336,45.2042,73.11,88,0,4.61,clear sky
292,Bud,US,39.447,-86.1758,53.62,37,1,15.77,clear sky
293,Santa Cruz,BO,-17.8,-63.1667,87.26,58,40,16.11,scattered clouds
294,Xuddur,SO,4.1213,43.8894,73.02,79,42,12.17,scattered clouds
295,Kruisfontein,ZA,-34.0033,24.7314,74.88,54,98,10.45,overcast clouds
296,Baiyin,CN,36.5583,104.2081,51.84,70,100,3.24,overcast clouds
297,Namibe,AO,-15.1961,12.1522,64.08,87,17,8.1,few clouds
298,Honiara,SB,-9.4333,159.95,83.19,74,45,1.52,scattered clouds
299,Souillac,MU,-20.5167,57.5167,70.18,64,20,4.61,few clouds
300,Namatanai,PG,-3.6667,152.4333,81.75,69,100,5.55,overcast clouds
301,Tabou,CI,4.423,-7.3528,76.73,87,86,7.02,light rain
302,Koumac,NC,-20.5667,164.2833,76.32,68,20,4.16,few clouds
303,Vaitape,PF,-16.5167,-151.75,78.03,77,5,7.31,clear sky
304,Tarabuco,BO,-19.1667,-64.9167,63.77,40,4,13.91,clear sky
305,Ostrovnoy,RU,68.0531,39.5131,38.28,79,88,35.68,light rain
306,San Carlos De Bariloche,AR,-41.1456,-71.3082,63.01,28,40,27.63,scattered clouds
307,Galle,LK,6.0367,80.217,77.31,90,100,11.16,overcast clouds
308,Bengkulu,ID,-3.8004,102.2655,74.21,92,100,1.52,overcast clouds
309,Okhotsk,RU,59.3833,143.3,20.41,56,0,17.49,clear sky
310,Oravita,RO,45.0325,21.6894,50.56,63,0,3.13,clear sky
311,Aklavik,CA,68.2191,-135.0107,26.6,93,100,8.05,overcast clouds
312,Provideniya,RU,64.3833,-173.3,35.87,98,100,28.21,moderate rain
313,Kibala,TD,9.1104,18.3463,75.15,94,0,1.14,clear sky
314,Sao Filipe,CV,14.8961,-24.4956,79.66,80,33,4.61,scattered clouds
315,Gat,IL,31.61,34.7642,71.4,69,80,2.62,broken clouds
316,Katsuura,JP,35.1333,140.3,57.29,65,0,13.82,clear sky
317,Sabang,ID,5.8933,95.3214,80.85,78,100,24.76,overcast clouds
318,Amurzet,RU,47.6967,131.0981,36.3,68,2,6.35,clear sky
319,Helong,CN,42.5397,128.9972,40.08,60,1,7.81,clear sky
320,Russell,US,32.3502,-85.1999,63.68,25,0,10.36,clear sky
321,Makakilo City,US,21.3469,-158.0858,82.72,57,75,9.22,broken clouds
322,Areosa,PT,41.7178,-8.8571,60.37,87,0,17.36,clear sky
323,Araouane,ML,18.9048,-3.5265,90.32,15,65,5.21,broken clouds
324,Nazilli,TR,37.9163,28.3223,60.1,74,0,2.33,clear sky
325,Port-Cartier,CA,50.0334,-66.8654,50.22,98,100,21.05,overcast clouds
326,Darnah,LY,32.767,22.6367,68.63,74,19,8.37,few clouds
327,Coquimbo,CL,-29.9533,-71.3436,60.37,70,0,7.58,clear sky
328,Zaraza,VE,9.3503,-65.3245,82.58,74,90,6.76,overcast clouds
329,Durant,US,33.994,-96.3708,67.57,21,0,4.61,clear sky
330,Kahului,US,20.8947,-156.47,84.22,70,20,9.22,few clouds
331,Songjianghe,CN,42.1859,127.479,33.21,73,0,7.27,clear sky
332,Yulara,AU,-25.2406,130.9889,61.57,71,0,3.4,clear sky
333,Farmington,US,36.7281,-108.2187,73.2,34,0,9.22,clear sky
334,Thinadhoo,MV,0.5333,72.9333,81.55,74,100,9.82,overcast clouds
335,Camocim,BR,-2.9022,-40.8411,81.23,70,27,18.52,scattered clouds
336,Carballo,ES,43.213,-8.691,62.76,86,39,10.54,scattered clouds
337,Bairiki,KI,1.3292,172.9752,82.4,83,20,8.05,few clouds
338,North Bend,US,43.4065,-124.2243,65.16,88,75,11.5,mist
339,Vlasikha,RU,53.2972,83.5742,40.05,65,40,8.95,scattered clouds
340,Hay River,CA,60.8156,-115.7999,48.18,87,100,11.5,moderate rain
341,Stromness,GB,58.965,-3.296,46.87,80,93,13.0,overcast clouds
342,Saint George,US,37.1041,-113.5841,82.44,17,0,3.44,clear sky
343,Nicoya,CR,10.1483,-85.452,85.69,67,97,1.97,overcast clouds
344,Taltal,CL,-25.4,-70.4833,64.0,62,23,6.67,few clouds
345,Alacranes,CU,22.7675,-81.5675,79.29,88,100,12.21,overcast clouds
346,Tual,ID,-5.6667,132.75,84.16,71,99,4.59,overcast clouds
347,Abu Dhabi,AE,24.4667,54.3667,86.02,72,0,2.3,clear sky
348,Kyaka,TZ,-1.2522,31.4203,63.63,88,90,2.44,overcast clouds
349,Karratha,AU,-20.7377,116.8463,73.92,71,0,7.31,clear sky
350,Gaoua,BF,10.2992,-3.2508,79.61,69,100,5.12,overcast clouds
351,Lagoa,PT,39.05,-27.9833,65.88,77,100,28.92,light rain
352,Katangli,RU,51.7102,143.2326,32.77,80,9,10.87,clear sky
353,Atlantic City,US,39.3643,-74.4229,57.18,41,20,11.5,few clouds
354,Noumea,NC,-22.2763,166.4572,78.01,99,76,13.35,broken clouds
355,Qasigiannguit,GL,68.8193,-51.1922,30.45,94,99,4.72,overcast clouds
356,Vila Velha,BR,-20.3297,-40.2925,71.55,96,100,8.05,overcast clouds
357,Puerto Escondido,MX,15.85,-97.0667,79.63,61,100,11.5,overcast clouds
358,Udachnyy,RU,66.4167,112.4,19.44,89,100,5.66,overcast clouds
359,Camacha,PT,33.0833,-16.3333,69.22,83,20,13.8,few clouds
360,Panji,ID,-7.7253,114.0995,75.78,87,100,3.67,overcast clouds
361,Iqaluit,CA,63.7506,-68.5145,24.53,63,20,12.66,few clouds
362,Begoro,GH,6.3871,-0.3774,70.34,95,68,3.29,broken clouds
363,Hnaberd,AM,40.6372,44.1406,41.29,63,65,6.17,broken clouds
364,Nuristan,AF,35.3,70.8333,25.09,62,5,9.66,clear sky
365,Ayolas,PY,-27.4,-56.9,71.69,91,92,5.66,overcast clouds
366,Gwadar,PK,25.1216,62.3254,81.68,54,71,5.17,broken clouds
367,Saint-Pierre,RE,-21.3393,55.4781,69.48,68,0,10.36,clear sky
368,Monrovia,LR,6.3005,-10.7969,76.77,85,99,7.29,overcast clouds
369,Hagere Selam,ET,6.4833,38.5167,49.42,99,100,3.94,light rain
370,Bonavista,CA,48.6499,-53.1147,53.4,88,9,11.99,clear sky
371,Kalabo,ZM,-14.97,22.6814,74.19,45,81,12.01,broken clouds
372,Nelspruit,ZA,-25.4745,30.9703,68.36,75,49,1.74,scattered clouds
373,Ust-Nera,RU,64.5667,143.2,-6.48,99,75,4.32,broken clouds
374,Matamoros,MX,25.5333,-103.25,68.11,46,75,5.75,broken clouds
375,Itarema,BR,-2.9248,-39.9167,79.25,79,64,16.53,broken clouds
376,Muskegon,US,43.3,-86.1334,42.66,65,100,16.11,overcast clouds
377,Teknaf,BD,20.8624,92.3058,76.71,87,2,3.47,clear sky
378,Khandyga,RU,62.6667,135.6,11.32,94,100,2.71,overcast clouds
379,Tyubuk,RU,56.0552,60.9405,39.83,90,100,5.73,overcast clouds
380,Paamiut,GL,61.994,-49.6678,34.11,76,100,27.81,overcast clouds
381,Tessalit,ML,20.1986,1.0114,83.77,20,27,8.41,scattered clouds
382,Zhezkazgan,KZ,47.8043,67.7144,49.37,57,100,22.97,overcast clouds
383,Morondava,MG,-20.2833,44.2833,77.22,84,6,6.62,clear sky
384,Matara,LK,5.9485,80.5353,76.23,92,100,9.62,overcast clouds
385,Jian,CN,27.1172,114.9793,54.63,41,100,3.18,overcast clouds
386,Mareeba,AU,-17.0,145.4333,73.44,94,70,0.78,broken clouds
387,Santa Quiteria,BR,-4.3319,-40.1567,91.54,31,86,7.76,overcast clouds
388,Mendeleyevo,RU,56.0333,37.2167,42.58,87,100,11.18,overcast clouds
389,Roebourne,AU,-20.7833,117.1333,73.96,63,0,7.72,clear sky
390,Tezu,IN,27.9167,96.1667,65.19,85,3,3.98,clear sky
391,Dali,CN,25.7,100.1833,52.38,87,7,1.48,clear sky
392,Yaroslavl,RU,57.6299,39.8737,37.2,87,75,4.47,broken clouds
393,Sawtell,AU,-30.3833,153.1,66.22,82,100,10.36,overcast clouds
394,Tamandare,BR,-8.7597,-35.1047,76.12,77,10,9.08,clear sky
395,Rio Gallegos,AR,-51.6226,-69.2181,53.65,43,75,8.05,broken clouds
396,Oppdal,NO,62.5943,9.6912,33.28,86,13,2.51,few clouds
397,Neyshabur,IR,36.2133,58.7958,54.66,59,0,2.24,clear sky
398,Nuuk,GL,64.1835,-51.7216,29.01,80,75,8.05,broken clouds
399,Qui Nhon,VN,13.7667,109.2333,76.62,81,74,1.16,broken clouds
400,Strezhevoy,RU,60.7333,77.5889,39.42,96,100,12.59,overcast clouds
401,Huarmey,PE,-10.0681,-78.1522,66.11,74,94,12.59,overcast clouds
402,Vila Do Maio,CV,15.1333,-23.2167,79.59,81,83,12.3,broken clouds
403,Yar-Sale,RU,66.8333,70.8333,37.22,85,100,15.61,overcast clouds
404,Trinidad,BO,-14.8333,-64.9,91.38,58,20,4.61,few clouds
405,Blackwater,AU,-23.5833,148.8833,69.71,91,63,12.1,moderate rain
406,Spring Hill,US,28.4769,-82.5255,68.02,33,0,9.22,clear sky
407,Ilulissat,GL,69.2167,-51.1,30.22,64,75,13.8,broken clouds
408,Bahir Dar,ET,11.5936,37.3908,60.17,87,95,2.77,light rain
409,Acarau,BR,-2.8856,-40.12,79.66,77,61,18.14,broken clouds
410,Turbat,PK,26.0023,63.044,83.44,18,6,15.55,clear sky
411,Rio Grande,BR,-32.035,-52.0986,69.91,89,4,10.18,clear sky
412,Matai,TZ,-8.3,31.5167,63.27,55,32,5.39,scattered clouds
413,Tommot,RU,58.9564,126.2925,24.08,93,99,9.4,overcast clouds
414,Mubende,UG,0.5606,31.39,61.7,99,100,2.35,overcast clouds
415,Crossville,US,35.949,-85.0269,55.49,42,0,9.22,clear sky
416,Salinas,US,36.6777,-121.6555,99.01,19,0,8.05,smoke
417,Yaan,NG,7.3833,8.5667,75.9,86,99,5.17,overcast clouds
418,Coari,BR,-4.085,-63.1414,79.2,90,95,2.33,overcast clouds
419,Nampula,MZ,-15.1165,39.2666,73.35,68,0,12.66,clear sky
420,Nelson Bay,AU,-32.7167,152.15,66.0,97,100,8.99,light rain
421,Borba,BR,-4.3878,-59.5939,87.1,57,82,0.85,heavy intensity rain
422,Vagur,FO,61.4732,-6.8119,45.45,71,27,10.33,scattered clouds
423,San Ignacio,BZ,17.1561,-89.0714,86.14,70,20,6.91,moderate rain
424,Jalu,LY,29.0331,21.5482,71.83,49,54,4.34,broken clouds
425,Agua Branca,BR,-5.8922,-42.6361,87.58,36,61,5.1,broken clouds
426,Donnacona,CA,46.6804,-71.7239,54.95,66,80,3.44,broken clouds
427,Joshimath,IN,30.5667,79.5667,49.64,59,10,3.87,clear sky
428,Rantoul,US,40.3084,-88.1559,50.02,32,0,12.66,clear sky
429,Preobrazheniye,RU,42.9019,133.9064,45.86,85,0,10.16,clear sky
430,Ovalle,CL,-30.5983,-71.2003,67.44,44,38,9.17,scattered clouds
431,Erenhot,CN,43.6475,111.9767,51.76,47,17,13.4,few clouds
432,Winnemucca,US,40.973,-117.7357,78.85,10,0,13.8,clear sky
433,Parlakimidi,IN,18.7667,84.0833,73.76,92,46,2.82,scattered clouds
434,Chincha Alta,PE,-13.4099,-76.1323,64.99,70,91,7.38,overcast clouds
435,Harper,LR,4.375,-7.7169,76.87,87,86,7.18,light rain
436,Stornoway,GB,58.2093,-6.3865,47.93,86,62,4.0,broken clouds
437,Bozuyuk,TR,39.9078,30.0367,53.94,95,46,3.31,scattered clouds
438,Nueve De Julio,AR,-35.4444,-60.8831,73.96,50,100,1.99,light rain
439,Mazagao,BR,-0.115,-51.2894,91.45,72,78,7.02,broken clouds
440,Hami,CN,42.8,93.45,48.96,52,0,2.04,clear sky
441,Nyrob,RU,60.733,56.7202,35.04,80,94,6.6,overcast clouds
442,Ampanihy,MG,-24.7,44.75,73.76,59,3,8.43,clear sky
443,Novyy Svit,UA,47.8059,38.0211,51.17,55,100,6.6,overcast clouds
444,Broome,US,42.2506,-75.833,45.63,82,100,6.91,overcast clouds
445,Klaksvik,FO,62.2266,-6.589,41.92,69,66,7.9,broken clouds
446,Tabuk,PH,17.4189,121.4443,72.88,97,100,2.8,moderate rain
447,Magadan,RU,59.5667,150.8,20.7,56,31,12.39,scattered clouds
448,Amapa,BR,1.0,-52.0,77.94,81,100,3.8,overcast clouds
449,Petropavlovsk-Kamchatskiy,RU,53.0452,158.6483,36.19,48,40,11.18,scattered clouds
450,Caucaia,BR,-3.7361,-38.6531,80.55,77,0,11.5,clear sky
451,Lubao,PH,14.9167,120.55,78.51,96,100,4.61,moderate rain
452,Egvekinot,RU,66.3167,-179.1667,29.7,98,100,27.07,snow
453,Abbeville,FR,50.1,1.8333,62.56,86,92,14.14,overcast clouds
454,Angoche,MZ,-16.2325,39.9086,74.77,84,1,6.6,clear sky
455,Qiongshan,CN,20.0058,110.3542,73.38,100,75,17.9,broken clouds
456,Najran,SA,17.4924,44.1277,70.45,24,0,1.34,clear sky
457,Pevek,RU,69.7008,170.3133,27.43,95,100,5.53,overcast clouds
458,Izhma,RU,65.0083,53.9113,33.31,94,100,7.7,overcast clouds
459,Collie,AU,-33.3667,116.15,52.25,96,56,2.37,broken clouds
460,Mansa,IN,29.9833,75.3833,70.66,61,0,8.48,clear sky
461,Iracoubo,GF,5.4802,-53.2011,80.83,80,73,10.54,broken clouds
462,Auki,SB,-8.7676,160.7034,82.53,72,66,1.86,broken clouds
463,Middelburg,ZA,-25.7751,29.4648,65.48,53,15,5.61,few clouds
464,Dzaoudzi,YT,-12.7887,45.2699,73.29,88,0,2.3,clear sky
465,Lodja,CD,-3.4833,23.4333,70.84,92,84,0.89,light rain
466,Moose Factory,CA,51.2585,-80.6094,41.0,93,75,10.36,broken clouds
467,Ciudad Bolivar,VE,8.1222,-63.5497,89.49,50,96,5.23,overcast clouds
468,Morant Bay,JM,17.8815,-76.4093,87.71,73,72,7.0,broken clouds
469,Kuznechnoye,RU,61.12,29.8686,34.0,88,90,5.82,overcast clouds
470,Alofi,NU,-19.0595,-169.9187,78.69,89,75,2.3,broken clouds
471,Wilmington,US,34.2257,-77.9447,62.01,40,0,16.11,clear sky
472,Innisfail,AU,-17.5333,146.0333,77.41,84,64,2.21,broken clouds
473,Tangjiazhuang,CN,39.7333,118.45,50.99,45,97,3.22,overcast clouds
474,Hofn,IS,64.2539,-15.2082,42.42,65,8,3.53,clear sky
475,Awjilah,LY,29.1081,21.2869,72.1,48,63,4.79,broken clouds
476,Aranos,NA,-24.1333,19.1167,75.94,39,28,19.13,scattered clouds
477,Adrar,MR,20.5022,-10.0711,89.01,12,58,9.37,broken clouds
478,Dorverden,DE,52.85,9.2333,49.32,89,100,8.59,light rain
479,Lasa,IT,46.6166,10.7002,56.28,75,67,2.39,broken clouds
480,Nador,MA,35.174,-2.9287,70.05,94,40,6.91,scattered clouds
481,Braganca,BR,-1.0536,-46.7656,80.35,75,100,7.16,overcast clouds
482,Mount Isa,AU,-20.7333,139.5,71.37,53,100,5.75,overcast clouds
483,Hamilton,US,39.1834,-84.5333,55.76,37,0,12.66,clear sky
484,San Lawrenz,MT,36.0553,14.204,67.86,75,0,1.79,clear sky
485,Asfi,MA,32.2994,-9.2372,69.48,75,100,5.21,overcast clouds
486,Pontianak,ID,-0.0333,109.3333,75.18,100,75,1.14,broken clouds
487,Saint-Joseph,RE,-21.3667,55.6167,66.58,71,19,8.46,few clouds
488,Solnechnyy,RU,50.7214,136.6319,35.78,66,100,2.84,overcast clouds
489,College,US,64.8569,-147.8028,37.8,90,100,3.44,fog
490,Tilichiki,RU,60.4667,166.1,25.61,79,97,10.76,overcast clouds
491,Aboso,GH,5.3617,-1.9473,73.89,94,63,3.2,broken clouds
492,Comodoro Rivadavia,AR,-45.8667,-67.5,73.26,27,0,28.77,clear sky
493,Kieta,PG,-6.2167,155.6333,81.86,67,86,1.77,overcast clouds
494,Pinos Puente,ES,37.2511,-3.7497,78.3,37,0,0.0,clear sky
495,Marzuq,YE,14.4,46.4667,69.57,28,32,0.56,scattered clouds
496,Socorro,US,31.6546,-106.3033,69.37,43,0,11.5,clear sky
497,Nova Aurora,BR,-22.8667,-52.5667,80.29,70,16,2.53,few clouds
498,Kavaratti,IN,10.5669,72.642,80.87,78,40,14.12,scattered clouds
499,Kupang,ID,-10.1667,123.5833,79.18,81,18,3.15,few clouds
500,Te Anau,NZ,-45.4167,167.7167,43.54,89,48,8.34,scattered clouds
501,Bam,IR,29.106,58.357,71.85,20,9,6.31,clear sky
502,Kalmar,SE,56.6616,16.3616,43.97,93,6,3.44,clear sky
503,Nizhnyaya Tavda,RU,57.6731,66.1725,40.33,91,100,6.71,light rain
504,Methven,NZ,-43.6333,171.65,51.03,73,90,3.0,overcast clouds
505,Mnogovershinnyy,RU,53.9353,139.9242,28.58,80,100,6.64,overcast clouds
506,Cottonwood,US,34.7392,-112.0099,82.31,22,54,4.0,broken clouds
507,Hue,VN,16.4667,107.6,69.91,83,100,12.66,overcast clouds
508,Viedma,AR,-40.8135,-62.9967,76.84,38,90,14.83,overcast clouds
509,Palmas Bellas,PA,9.2319,-80.0867,84.0,85,60,8.34,moderate rain
510,Coelho Neto,BR,-4.2567,-43.0128,88.47,38,53,0.87,broken clouds
511,Peniche,PT,39.3558,-9.3811,61.11,88,0,18.28,clear sky
512,Virginia Beach,US,36.8529,-75.978,59.05,45,20,12.66,few clouds
513,Cacoal,BR,-11.4386,-61.4472,89.19,55,51,3.09,light rain
514,Srednekolymsk,RU,67.45,153.6833,13.77,94,100,22.08,light snow
515,Ishigaki,JP,24.3448,124.1572,75.33,78,75,23.02,broken clouds
516,Ati,TD,13.2154,18.3353,88.74,21,6,7.2,clear sky
517,Punta Cardon,VE,11.6581,-70.215,85.57,66,1,24.94,clear sky
518,Cayenne,GF,4.9333,-52.3333,86.04,70,0,10.36,clear sky
519,Rincon,US,32.296,-81.2354,63.86,37,20,12.66,few clouds
520,Dakar,SN,14.6937,-17.4441,82.53,89,0,4.61,clear sky
521,Bageshwar,IN,29.85,79.7667,52.63,75,0,3.74,clear sky
522,Cerveteri,IT,41.9926,12.0924,69.4,71,0,3.56,clear sky
523,Kalmunai,LK,7.4167,81.8167,78.75,85,100,7.4,heavy intensity rain
524,Taitung,TW,22.7583,121.1444,70.56,78,89,13.27,overcast clouds
525,Carman,CA,49.4992,-98.0016,61.72,28,94,6.91,overcast clouds
526,Mae Sai,TH,20.4335,99.8762,62.92,70,0,2.73,clear sky
527,Port Hedland,AU,-20.3167,118.5667,71.65,40,0,9.22,clear sky
528,Kropotkin,RU,45.4375,40.5756,56.62,78,0,6.85,clear sky
529,Skibbereen,IE,51.55,-9.2667,59.11,92,100,14.61,overcast clouds
530,Tiznit,MA,29.5833,-9.5,76.95,30,17,3.87,few clouds
531,Ararangua,BR,-28.9347,-49.4858,67.06,88,29,4.12,scattered clouds
532,La Asuncion,VE,11.0333,-63.8628,96.53,46,1,16.11,clear sky
533,Miles City,US,46.4083,-105.8406,72.57,23,0,6.91,clear sky
534,Zomergem,BE,51.1277,3.5553,56.14,75,60,12.55,broken clouds
535,Ofaqim,IL,31.3141,34.6203,70.88,69,83,3.33,broken clouds
536,Mackay,AU,-21.15,149.2,75.69,87,90,8.77,light rain
537,Henties Bay,NA,-22.116,14.2845,59.25,87,98,10.02,overcast clouds
538,Rakovnik,CZ,50.1037,13.7334,47.25,91,22,2.55,few clouds
539,Akcaabat,TR,41.0212,39.5715,66.07,88,75,3.44,broken clouds
540,Ouadda,CF,8.0777,22.4007,71.56,74,67,3.29,broken clouds
541,Bogorodskoye,RU,56.55,37.8833,42.46,82,99,4.45,overcast clouds
542,Puerto Leguizamo,CO,-0.1934,-74.7819,79.5,94,99,1.12,overcast clouds
543,Gizo,SB,-8.103,156.8419,83.01,73,87,3.8,overcast clouds
544,Yumen,CN,40.2833,97.2,42.87,34,22,8.81,few clouds
545,Muros,ES,42.7762,-9.0603,61.84,86,15,20.83,few clouds
546,Amga,RU,60.8953,131.9608,27.21,92,100,8.9,light snow
547,Jumla,NP,29.2747,82.1838,42.03,81,7,3.98,clear sky
548,Kloulklubed,PW,7.0419,134.2556,77.5,74,100,13.65,overcast clouds
549,Kang,BW,-23.6752,22.7876,75.43,38,78,7.05,broken clouds
550,Nemuro,JP,43.3236,145.575,48.02,68,3,4.09,clear sky
551,Yerbogachen,RU,61.2767,108.0108,26.65,91,88,7.27,overcast clouds
552,Kelme,LT,55.6339,22.9342,35.62,79,18,6.53,few clouds
553,Talnakh,RU,69.4865,88.3972,34.21,98,100,13.11,light snow
554,Bongouanou,CI,6.6486,-4.1992,71.4,98,99,2.1,light rain
555,Terrace Bay,CA,48.7834,-87.1,39.63,46,13,13.31,few clouds
556,Orange Cove,US,36.6244,-119.3137,89.24,31,0,0.0,clear sky
557,Nabire,ID,-3.3667,135.4833,75.43,92,100,2.66,overcast clouds
558,Beira,MZ,-19.8436,34.8389,77.09,78,20,12.66,few clouds
559,Eyl,SO,7.9803,49.8164,78.24,82,1,11.92,clear sky
560,Athabasca,CA,54.7169,-113.2854,68.41,21,99,10.2,overcast clouds
561,Bodden Town,KY,19.2833,-81.25,87.01,71,40,5.75,scattered clouds
562,Kasane,BW,-17.8167,25.15,73.6,49,98,6.89,overcast clouds
563,Zhaotong,CN,27.3167,103.7167,48.09,74,0,3.96,clear sky
564,Karakol,KG,42.4907,78.3936,33.67,89,100,2.68,overcast clouds
565,Pangnirtung,CA,66.1451,-65.7125,21.2,63,75,4.61,broken clouds
566,Sisimiut,GL,66.9395,-53.6735,26.22,83,91,7.74,light snow
567,The Valley,AI,18.217,-63.0578,86.14,74,20,16.11,few clouds
568,Haputale,LK,6.7681,80.9595,61.66,83,97,3.15,overcast clouds
569,Ushtobe,KZ,45.2514,77.9838,43.61,44,91,8.86,overcast clouds
570,Letlhakane,BW,-21.4167,25.5833,76.28,31,85,19.04,overcast clouds
571,Umm Kaddadah,SD,13.6017,26.6876,85.98,21,6,13.51,clear sky
572,Presidencia Roque Saenz Pena,AR,-26.7852,-60.4388,72.52,88,97,2.44,overcast clouds
573,Yarmouth,US,41.7057,-70.2286,55.99,60,20,23.02,few clouds
574,Angoram,PG,-4.0625,144.0661,74.03,98,85,2.21,overcast clouds
575,Kovylkino,RU,54.0388,43.9139,42.46,93,97,3.69,overcast clouds
576,Tayga,RU,56.06,85.6197,34.72,85,98,8.03,overcast clouds
577,Ojinaga,MX,29.5667,-104.4167,75.58,49,0,0.0,clear sky
578,Camopi,GF,3.1655,-52.3158,80.2,73,96,2.33,overcast clouds
579,Sept-Iles,CA,50.2001,-66.3821,50.52,98,100,28.77,moderate rain
580,Turangi,NZ,-39.0,175.9333,49.35,62,74,5.55,broken clouds
581,Sorong,ID,-0.8833,131.25,78.21,86,82,4.92,broken clouds
582,Deputatskiy,RU,69.3,139.9,-8.45,88,16,4.47,few clouds
583,Riyadh,SA,24.6877,46.7219,78.94,14,3,2.21,clear sky
584,Margate,GB,51.3813,1.3862,59.9,84,100,8.01,overcast clouds
585,Bereda,ES,43.2686,-7.5406,55.42,96,35,6.67,scattered clouds
586,Luziania,BR,-16.2525,-47.9503,89.29,26,32,7.02,scattered clouds
587,Agua Prieta,MX,31.3,-109.5667,75.38,38,6,9.91,clear sky
588,Wang Noi,TH,14.2269,100.7155,75.18,79,23,4.21,few clouds
589,Gay,RU,51.4666,58.4552,46.92,74,100,16.49,overcast clouds
590,Ekibastuz,KZ,51.6667,75.3667,41.41,80,100,23.82,overcast clouds
591,Vestmanna,FO,62.1564,-7.1664,40.12,81,100,4.61,overcast clouds
592,Havelock,US,34.8791,-76.9013,60.94,43,0,10.36,clear sky
593,Freeport,US,40.6576,-73.5832,55.26,47,40,18.41,scattered clouds
594,Houma,US,29.5958,-90.7195,63.01,39,0,5.95,clear sky
595,Byron Bay,AU,-28.65,153.6167,65.71,88,100,10.98,overcast clouds
596,Butka,RU,56.7179,63.7866,40.1,86,98,8.48,overcast clouds
597,Kawalu,ID,-7.3817,108.2082,72.61,98,100,1.34,overcast clouds
598,Saint Anthony,US,45.0205,-93.218,49.01,29,100,11.5,overcast clouds
599,Gazanjyk,TM,39.2446,55.5154,55.89,61,1,12.39,clear sky
600,Daitari,IN,21.1,85.75,69.3,89,0,2.53,clear sky
601,Paciran,ID,-6.8767,112.3761,78.84,85,99,2.86,overcast clouds
602,Teguise,ES,29.0605,-13.564,70.02,73,0,9.22,clear sky
603,Okha,RU,53.5739,142.9478,38.05,81,77,11.92,broken clouds
604,Gao,ML,16.6362,1.637,83.5,17,0,10.87,clear sky
605,Makat,KZ,47.6469,53.3463,52.27,78,19,10.16,few clouds
606,Aykhal,RU,66.0,111.5,17.87,88,100,8.34,overcast clouds
607,Hoima,UG,1.4356,31.3436,64.74,95,97,1.9,overcast clouds
608,Dauphin,CA,51.1494,-100.0502,62.74,39,0,6.91,clear sky
609,Boa Vista,BR,2.8197,-60.6733,75.18,88,75,5.75,moderate rain
610,Discovery Bay,US,37.9085,-121.6002,92.79,22,0,5.99,clear sky
611,Pitogo,PH,13.7847,122.0881,77.56,91,98,5.48,overcast clouds
612,Mananjary,MG,-21.2167,48.3333,69.84,83,74,3.2,light rain
613,Mehamn,NO,71.0357,27.8492,35.55,60,75,34.52,broken clouds
614,Delhi,IN,28.6667,77.2167,73.49,56,0,2.3,haze
615,Qurayyat,SA,31.3318,37.3428,73.58,43,0,6.91,clear sky
616,Ust-Tsilma,RU,65.441,52.1498,32.85,98,100,7.38,light snow
617,Telimele,GN,10.9167,-13.3333,69.42,95,98,0.89,light rain
618,Kudahuvadhoo,MV,2.6708,72.8944,81.03,77,93,12.66,overcast clouds
619,Vieste,IT,41.8825,16.175,66.96,84,4,14.45,clear sky
620,Hillsborough,US,37.5741,-122.3794,93.29,46,0,6.91,haze
621,Quang Ngai,VN,15.1167,108.8,72.66,83,100,2.62,overcast clouds
622,Salto,UY,-31.3833,-57.9667,74.97,67,99,5.97,overcast clouds
623,Ponta Delgada,PT,37.7333,-25.6667,66.92,77,40,21.85,scattered clouds
624,Batticaloa,LK,7.7102,81.6924,79.16,79,100,6.42,light rain
625,Vao,NC,-22.6667,167.4833,70.34,68,54,15.75,broken clouds
626,Eregli,TR,37.5133,34.0467,57.38,73,9,0.94,clear sky
627,Peleduy,RU,59.6289,112.7406,28.22,91,100,6.53,overcast clouds
628,Fukue,JP,32.6881,128.8419,64.81,58,0,18.16,clear sky
629,Biloela,AU,-24.4167,150.5,68.54,91,98,6.76,light rain
630,Ozernovskiy,RU,51.5,156.5167,39.74,63,100,31.47,light rain
631,Inirida,CO,3.8653,-67.9239,80.37,90,97,2.35,heavy intensity rain
632,Cayhagan,PH,9.6697,122.4256,78.87,84,100,7.16,moderate rain
633,Pangkalanbuun,ID,-2.6833,111.6167,74.23,99,100,1.86,overcast clouds
634,Dodola,ET,6.9833,39.1833,52.66,84,71,2.19,broken clouds
635,Basco,PH,20.4487,121.9702,79.14,81,100,32.93,overcast clouds
636,Ugento,IT,39.9263,18.1574,60.3,87,0,11.88,clear sky
637,Sangar,RU,63.9242,127.4739,14.23,97,98,0.65,overcast clouds
638,Kautokeino,NO,69.0125,23.0412,33.71,89,84,4.52,broken clouds
639,Soyo,AO,-6.1349,12.3689,76.53,84,35,9.37,scattered clouds
640,Belaya Gora,RU,68.5333,146.4167,-3.03,100,51,1.88,broken clouds
641,Karawang,ID,-6.3042,107.3079,78.12,85,100,2.77,overcast clouds
642,Zhongshu,CN,24.5167,103.7667,47.93,70,54,2.73,broken clouds
643,Cap Malheureux,MU,-19.9842,57.6142,68.47,74,26,1.99,scattered clouds
644,Panshi,CN,42.9422,126.0561,37.9,87,0,5.1,clear sky
645,Amazar,RU,53.858,120.875,25.16,88,11,2.89,few clouds
646,Saint-Georges,GD,12.0564,-61.7485,87.48,70,20,13.8,few clouds
647,Chara,RU,56.9064,118.2631,24.93,75,81,2.66,broken clouds
648,Shurugwi,ZW,-19.6702,30.0059,64.0,45,22,9.17,few clouds
649,Lamesa,US,32.7376,-101.951,70.52,32,0,10.04,clear sky
650,Palu,ID,-0.8917,119.8707,74.75,93,100,3.2,overcast clouds
651,Aksarka,RU,66.5606,67.7975,36.41,92,100,13.44,overcast clouds
652,Umea,SE,63.8284,20.2597,42.73,75,0,8.05,clear sky
653,Jimma,ET,7.6667,36.8333,58.53,93,100,1.59,overcast clouds
654,Tarauaca,BR,-8.1614,-70.7656,85.44,61,88,2.71,overcast clouds
655,New Richmond,US,45.123,-92.5366,47.12,38,0,9.22,clear sky
656,Shaunavon,CA,49.6501,-108.4181,73.18,15,36,1.74,scattered clouds
657,Gulfport,US,30.3674,-89.0928,65.08,28,0,5.75,clear sky
658,Petropavlovskaya,RU,45.0819,40.4512,55.81,87,0,7.38,clear sky
659,Ejido,VE,8.5514,-71.2375,72.9,91,100,2.28,overcast clouds
660,Warragul,AU,-38.1667,145.9333,54.05,55,0,2.48,clear sky
661,Bogande,BF,12.9714,-0.1436,87.15,24,97,6.6,overcast clouds
662,Parana,AR,-31.732,-60.5238,68.56,86,100,9.46,light rain
663,Marawi,PH,7.9986,124.2928,69.39,93,100,4.0,overcast clouds
664,Resistencia,AR,-27.4606,-58.9839,73.45,78,100,10.36,light rain
665,Bubaque,GW,11.2833,-15.8333,82.44,77,5,10.38,light rain
666,Siguiri,GN,11.6667,-9.5,79.61,54,30,1.34,scattered clouds
667,Nantucket,US,41.2835,-70.0995,57.09,64,66,21.61,broken clouds
668,Angad,PH,17.5849,120.6257,74.77,94,100,2.93,overcast clouds
669,Rzhyshchiv,UA,49.9689,31.0463,48.94,78,98,11.54,light rain
670,Dwarka,IN,22.2394,68.9678,80.02,58,5,7.63,clear sky
671,Suntar,RU,62.1444,117.6319,25.43,84,100,8.01,overcast clouds
672,Catuday,PH,16.2923,119.8062,76.51,87,100,8.23,overcast clouds
673,Burgeo,CA,47.6167,-57.6152,55.76,92,96,18.77,overcast clouds
674,Rafaela,AR,-31.2503,-61.4867,66.97,56,100,1.01,moderate rain
675,Tocopilla,CL,-22.092,-70.1979,65.41,64,20,10.2,few clouds
676,Dire,ML,12.2833,-10.9667,79.57,70,42,1.97,scattered clouds
677,Dhidhdhoo,MV,6.8833,73.1,80.69,80,75,16.8,broken clouds
678,Bikin,RU,46.8161,134.26,32.56,84,50,5.88,scattered clouds
679,Carlisle,US,40.2015,-77.1889,52.0,50,87,4.0,overcast clouds
680,Gusau,NG,12.1628,6.6614,79.9,31,89,4.83,overcast clouds
681,Toktogul,KG,41.8708,72.9402,42.55,91,100,1.59,overcast clouds
682,Punakha,BT,27.5837,89.8598,53.85,80,18,2.28,few clouds
683,Ourossogui,SN,15.6064,-13.3211,92.8,34,90,8.16,overcast clouds
684,San Policarpo,PH,12.1791,125.5072,78.39,88,98,4.7,moderate rain
685,Cam Ranh,VN,11.9214,109.1591,78.76,78,75,14.97,broken clouds
686,Milagres,BR,-7.3133,-38.9456,93.97,38,100,7.85,overcast clouds
687,Aktau,KZ,43.65,51.2,54.18,67,100,24.49,overcast clouds
688,Karpogory,RU,64.0019,44.4451,35.55,92,100,10.38,overcast clouds
689,Tiarei,PF,-17.5333,-149.3333,80.62,78,4,10.25,light rain
690,Homer,US,59.6425,-151.5483,44.49,73,75,15.99,broken clouds
691,Praia Da Vitoria,PT,38.7333,-27.0667,63.75,94,40,24.11,scattered clouds
692,Qujing,CN,25.4833,103.7833,46.06,73,16,2.66,few clouds
693,Grajau,BR,-5.8194,-46.1386,90.23,32,47,6.71,scattered clouds
694,Aitape,PG,-3.1374,142.3475,76.91,86,100,4.63,overcast clouds
695,Xai-Xai,MZ,-25.0519,33.6442,70.84,86,3,5.93,clear sky
696,Dungarvan,IE,52.0881,-7.6253,60.22,92,100,12.75,overcast clouds
697,Tarko-Sale,RU,64.9225,77.785,36.61,93,100,14.81,overcast clouds
698,Sur,OM,22.5667,59.5289,81.43,39,100,7.56,overcast clouds
699,Teguldet,RU,57.3064,88.1667,37.38,97,100,7.45,overcast clouds
