City,Hotel Name,Country,Max Temp,Current Description,Lat,Lng
Kutum,Dibbo areaمنطقة دبو,SD,80.19,scattered clouds,14.2,24.6667
Salalah,"HAMDAN PLAZA HOTEL SALALAH, an HTG Hotel",OM,78.89,clear sky,17.0151,54.0924
Kavieng,Nusa Island Retreat,PG,82.06,overcast clouds,-2.5744,150.7967
Castro,CHACARA BAILLY,BR,73.08,broken clouds,-24.7911,-50.0119
Hermanus,Misty Waves Boutique Hotel,ZA,63.81,broken clouds,-34.4187,19.2345
Lima,Hotel Kamana,PE,61.05,overcast clouds,-12.0432,-77.0282
Alice Springs,Desert Palms Alice Springs,AU,65.75,light rain,-23.7,133.8833
Bengkulu,Grage Hotel Bengkulu,ID,75.18,moderate rain,-3.8004,102.2655
Kapaa,Sheraton Kauai Coconut Beach Resort,US,78.78,light rain,22.0752,-159.319
Elizabeth City,Hampton Inn Elizabeth City,US,79.05,clear sky,36.2946,-76.2511
Tahta,فندق الزيات,EG,78.71,clear sky,26.7693,31.5021
Cidreira,Hotel Castelo,BR,64.15,broken clouds,-30.1811,-50.2056
Atuona,Villa Enata,PF,76.05,clear sky,-9.8,-139.0333
Mahebourg,Shandrani Beachcomber Resort & Spa,MU,71.89,broken clouds,-20.4081,57.7
Civitavecchia,Hotel Mediterraneo,IT,70.59,clear sky,42.0933,11.7967
Bambous Virieux,Casa Tia Villa,MU,71.85,broken clouds,-20.3428,57.7575
Kasongo-Lunda,,CD,73.4,moderate rain,-6.4667,16.8167
Coihaique,Diego De Almagro Coyhaique,CL,75.81,clear sky,-45.5752,-72.0662
Avera,,US,79.56,overcast clouds,33.194,-82.5271
Katsuura,Katsuura Hotel Mikazuki,JP,68.02,light rain,35.1333,140.3
Rikitea,People ThankYou,PF,69.17,scattered clouds,-23.1203,-134.9692
San Patricio,"Motel 6 Sinton, TX",US,76.89,heavy intensity rain,28.017,-97.5169
Port Elizabeth,39 On Nile Guest House,ZA,67.1,broken clouds,-33.918,25.5701
Hithadhoo,Scoop Guest House,MV,81.68,overcast clouds,-0.6,73.0833
Butaritari,Isles Sunset Lodge,KI,79.95,light rain,3.0707,172.7902
Yulara,Desert Gardens Hotel - Ayers Rock Resort,AU,63.55,scattered clouds,-25.2406,130.9889
Eyl,EYL AQUE SYSTEM,SO,78.75,scattered clouds,7.9803,49.8164
Richards Bay,BON Hotel Waterfront Richards Bay,ZA,73.47,broken clouds,-28.783,32.0377
Marsh Harbour,Abaco Beach Resort,BS,80.69,clear sky,26.5412,-77.0636
Waddan,محل الشريف محمد العايب,LY,73.65,few clouds,29.1614,16.139
Ojinaga,Suites Las Palmas,MX,61.75,overcast clouds,29.5667,-104.4167
Bredasdorp,Bredasdorp Country Manor,ZA,61.47,broken clouds,-34.5322,20.0403
Kindu,Résidence Okanda,CD,70.36,light rain,-2.95,25.95
Half Moon Bay,"The Ritz-Carlton, Half Moon Bay",US,69.19,clear sky,37.4636,-122.4286
Lazaro Cardenas,HOTEL QUINTA ANTIGUA,MX,83.86,moderate rain,17.9583,-102.2
Gat,OlusHome,IL,74.08,clear sky,31.61,34.7642
Georgetown,Cititel Penang,MY,81.23,few clouds,5.4112,100.3354
Port Alfred,The Halyards Hotel & Spa,ZA,64.18,scattered clouds,-33.5906,26.891
Magdiwang,Sanctuary Garden Resort,PH,81.99,overcast clouds,12.491,122.5135
Chuy,Nuevo Hotel Plaza,UY,63.36,broken clouds,-33.6971,-53.4616
Praia,LT Aparthotel,CV,84.74,clear sky,14.9215,-23.5087
Bathsheba,Atlantis Hotel,BB,88.41,scattered clouds,13.2167,-59.5167
Carnarvon,Hospitality Carnarvon,AU,64.53,clear sky,-24.8667,113.6333
Hilo,Hilo Hawaiian Hotel,US,81.25,few clouds,19.7297,-155.09
Sao Joao Da Barra,Pousada Porto De Canoas,BR,82.49,broken clouds,-21.6403,-41.0511
Hoi An,Belle Maison Hadana Hoi An managed by H&K Hospitality,VN,78.76,overcast clouds,15.8794,108.335
Bethel,Courtyard by Marriott Danbury,US,65.48,overcast clouds,41.3712,-73.414
Lagos,,NG,82.72,overcast clouds,6.5833,3.75
Saldanha,Blue Bay Lodge,ZA,62.65,overcast clouds,-33.0117,17.9442
Fortuna,Super 8 by Wyndham Fortuna,US,67.93,few clouds,40.5982,-124.1573
Tres Arroyos,Habitacion Triple con baño y entrada privada,AR,76.15,scattered clouds,-38.3739,-60.2798
Cape Town,"Radisson Blu Hotel Waterfront, Cape Town",ZA,66.09,clear sky,-33.9258,18.4232
Cap Malheureux,Pereybere Hotel & Spa,MU,67.46,clear sky,-19.9842,57.6142
Karoi,Chikangwe Guest houses,ZW,74.12,few clouds,-16.8099,29.6925
Avarua,Paradise Inn,CK,75.25,broken clouds,-21.2078,-159.775
Kruisfontein,Oyster Bay House Rental,ZA,64.89,few clouds,-34.0033,24.7314
Gorontalo,Maqna Hotel by Prasanthi,ID,75.92,overcast clouds,0.5412,123.0595
Ocean City,Biscayne Suites,US,67.01,overcast clouds,39.2776,-74.5746
Sao Filipe,Hotel Xaguate,CV,79.12,overcast clouds,14.8961,-24.4956
Pisco,Hotel San Isidro Oficial,PE,65.01,few clouds,-13.7,-76.2167
Monrovia,Sunset Inn,LR,80.37,broken clouds,6.3005,-10.7969
Isangel,Tanna Lodge,VU,71.71,overcast clouds,-19.55,169.2667
Mount Isa,ibis Styles Mt Isa Verona,AU,76.77,light rain,-20.7333,139.5
Miri,"Mega Hotel, Miri",MY,75.34,moderate rain,4.4148,114.0089
Hat Yai,New Season Hotel,TH,77.18,broken clouds,7.0084,100.4767
Olinda,Flat Quatro Rodas Olinda,BR,82.13,scattered clouds,-8.0089,-34.8553
Vao,Hotel Kou-Bugny,NC,72.66,overcast clouds,-22.6667,167.4833
Betanzos,Hotel Garelos Betanzos,ES,67.12,scattered clouds,43.2804,-8.2147
Bitam,HOTEL JEANNE YEBE BITAM,GA,70.25,broken clouds,2.076,11.5007
Neuquen,Hotel del Comahue,AR,67.89,clear sky,-38.9516,-68.0591
Saint-Philippe,Le four à pain,RE,72.99,broken clouds,-21.3585,55.7679
Culaman,Jasmin Ex House,PH,81.19,overcast clouds,5.9603,125.6586
Cananea,Casas Montoya,MX,63.63,clear sky,30.95,-110.3
Lamar,Kings Inn Paris TX,US,67.98,clear sky,33.6668,-95.5836
Akyab,ဟိုတယ် မန်မိုရီ,MM,80.24,broken clouds,20.15,92.9
Viedma,Hotel Cristal,AR,77.32,broken clouds,-40.8135,-62.9967
Ribeira Grande,Quinta da Meia Eira,PT,63.0,scattered clouds,38.5167,-28.7
Vangaindrano,Hotel Fanilo,MG,68.11,clear sky,-23.35,47.6
Emerald,The Irish Village,AU,70.34,scattered clouds,-23.5333,148.1667
Puerto Ayora,Finch Bay Galapagos Hotel,EC,76.96,overcast clouds,-0.7393,-90.3518
Laguna,"Holiday Inn Express & Suites Elk Grove Central - Hwy 99, an IHG Hotel",US,73.98,clear sky,38.421,-121.4238
Rawson,Hosteria Sampedro,AR,69.35,broken clouds,-43.3002,-65.1023
San Nicolas,NORTHVIEW Hotel,PH,78.71,broken clouds,18.1725,120.5953
Vaini,Keleti Beach Resort,TO,75.36,scattered clouds,-21.2,-175.2
Victoria,Mini Central,HK,79.03,overcast clouds,22.2855,114.1577
Itoman,Southern Beach Hotel & Resort Okinawa,JP,73.42,broken clouds,26.1247,127.6694
Sur,Sur Plaza Hotel,OM,80.11,overcast clouds,22.5667,59.5289
Rio Gallegos,Hotel Santa Cruz,AR,75.25,clear sky,-51.6226,-69.2181
Moindou,Equi-lodge de Moindou,NC,72.54,broken clouds,-21.6924,165.677
Immokalee,Seminole Casino Hotel Immokalee,US,86.95,scattered clouds,26.4187,-81.4173
Dicabisagan,Nancy Montanes Bernardo,PH,78.64,broken clouds,17.0818,122.4157
Tulare,Puppy,US,72.95,clear sky,36.2666,-118.8009
Corinto,Ephira Hotel,GR,66.88,clear sky,37.9407,22.9573
Hualmay,Hotel Villa Kitzia Huacho,PE,66.74,broken clouds,-11.0964,-77.6139
Netarhat,HOTEL PRAKASH,IN,65.64,overcast clouds,23.4833,84.2667
Ferrandina,Hotel degli Ulivi,IT,66.29,clear sky,40.5012,16.4547
Komsomolskiy,Ikathouse,UZ,63.32,scattered clouds,40.4272,71.7189
Inhambane,Oceano,MZ,75.18,few clouds,-23.865,35.3833
Hasaki,Inubosaki Kanko Hotel,JP,63.28,light rain,35.7333,140.8333
Yenagoa,Aridolf Resort Wellness and Spa,NG,78.06,moderate rain,4.9247,6.2642
Dalbandin,Sanjrani House,PK,73.13,clear sky,28.8947,64.4101
Mar Del Plata,Gran Hotel Mar del Plata,AR,61.95,clear sky,-38.0023,-57.5575
Cabo San Lucas,Hotel Tesoro Los Cabos,MX,87.1,few clouds,22.8909,-109.9124
Mayo,Resorts Resource Group International,US,72.12,overcast clouds,38.8876,-76.5119
Ponta Do Sol,Hotel do Campo,PT,74.71,few clouds,32.6667,-17.1
Port Lincoln,Port Lincoln Hotel,AU,60.33,overcast clouds,-34.7333,135.8667
Burriana,Hotel Beatriz,ES,73.71,clear sky,39.889,-0.085
Saint-Georges,Radisson Grenada Beach Resort,GD,85.68,broken clouds,12.0564,-61.7485
Arrecife,Hotel Lancelot,ES,76.98,few clouds,28.963,-13.5477
Siavonga,Lavongora Waterfront Lodge,ZM,83.8,clear sky,-16.5382,28.7088
Kikwit,HOTEL PLACE YALABA,CD,73.54,light rain,-5.041,18.8162
Muros,Apartment Av. Castelao,ES,65.68,few clouds,42.7762,-9.0603
Mongoumba,,CF,72.0,overcast clouds,3.6415,18.5936
Meulaboh,Kost Pria,ID,76.37,overcast clouds,4.1363,96.1285
Poum,,NC,75.0,scattered clouds,-20.2333,164.0167
Malvern,Americas Best Value Inn Malvern,US,68.74,scattered clouds,34.3623,-92.813
Pilar Do Sul,HOTEL CENTRAL,BR,72.61,broken clouds,-23.8131,-47.7164
Hervey Bay,Shelly Bay Resort,AU,69.12,overcast clouds,-25.2986,152.8535
Vila Velha,Hotel Vitória Palace,BR,80.55,few clouds,-20.3297,-40.2925
Marawi,Derogongan Residence,PH,69.73,overcast clouds,7.9986,124.2928
Galle,Amangalla,LK,77.27,overcast clouds,6.0367,80.217
Wajid,xamdihotelresturant114,SO,81.28,overcast clouds,3.8093,43.2471
Port-Gentil,Fengshui Residence,GA,80.56,broken clouds,-0.7193,8.7815
Mopti,,ML,82.44,few clouds,14.6667,-4.0
Linares,Hotel Real,CL,72.18,broken clouds,-35.85,-71.6
Arraial Do Cabo,Pousada Porto Praia,BR,84.16,clear sky,-22.9661,-42.0278
Masvingo,River Side Lodge,ZW,74.64,few clouds,-20.0637,30.8277
Matale,Anil's Inn,LK,70.81,overcast clouds,7.4721,80.6234
Bati,Adem Endris Home,ET,67.8,broken clouds,11.1833,40.0167
Tiarei,Le Rocher de Tahiti,PF,78.82,light rain,-17.5333,-149.3333
Naze,Shishime Hotel,JP,67.12,light rain,28.3667,129.4833
Sambava,Melrose,MG,72.07,few clouds,-14.2667,50.1667
Airai,,TL,62.49,overcast clouds,-8.9266,125.4092
Jalu,صاحبة الفخامة,LY,72.91,few clouds,29.0331,21.5482
Lagoa,Casa Das Faias,PT,61.0,light rain,39.05,-27.9833
Shwebo,MOON SHINE Guest House,MM,76.28,few clouds,22.5667,95.7
Sorong,Waigo Splash Hotel,ID,80.24,broken clouds,-0.8833,131.25
Pringsewu,Urban Style by Front One,ID,74.39,light rain,-5.3582,104.9744
Indiaroba,Pura Vida Bahia,BR,82.22,clear sky,-11.5192,-37.5117
Torbay,Gallows Cove,CA,61.39,mist,47.6666,-52.7314
Kampot,Two Moons Hotel,KH,77.05,overcast clouds,10.6167,104.1833
Xanten,Hövelmann's Restaurant & Hotel,DE,63.21,overcast clouds,51.6667,6.45
Mackay,International Lodge Motel,AU,75.69,scattered clouds,-21.15,149.2
Carauari,Hotel Fellip,BR,83.28,overcast clouds,-4.8828,-66.8958
Bad Windsheim,Flair Hotel zum Storchen,DE,64.35,overcast clouds,49.5,10.4167
Benghazi,Tibesti Hotel,LY,71.55,few clouds,32.1167,20.0667
Comodoro Rivadavia,Austral Hotel,AR,78.66,clear sky,-45.8667,-67.5
Maralal,Ngari Hill Ecolodge,KE,66.11,broken clouds,1.0968,36.698
Knysna,Protea by Marriott Hotel Knysna Quays,ZA,63.37,scattered clouds,-34.0363,23.0471
Lata,Casa Maquia,PT,72.91,scattered clouds,40.1629,-8.3327
Takoradi,Raybow International Hotel,GH,79.14,broken clouds,4.8845,-1.7554
Languyan,,PH,78.51,light rain,5.2618,120.0807
Gemena,Hôtel Goshen,CD,71.98,overcast clouds,3.25,19.7667
Monster,Roompot Kijkduin,NL,61.02,few clouds,52.0258,4.175
Taltal,Residencial Karime,CL,65.32,clear sky,-25.4,-70.4833
Tam Ky,Nhà Nghỉ Phương Hòa,VN,70.39,overcast clouds,15.5667,108.4833
Popondetta,Timos Transit House,PG,72.79,overcast clouds,-8.7537,148.2534
Aizawl,Riak Maw Inn,IN,61.5,scattered clouds,23.7333,92.7167
Hambantota,Bungalow 63,LK,77.34,overcast clouds,6.1241,81.1185
Grand Gaube,Veranda Paul et Virginie Hotel & Spa,MU,72.0,clear sky,-20.0064,57.6608
Bacungan,Sumayang Property,PH,78.85,overcast clouds,9.9106,118.7022
La Roche-Sur-Yon,"The Originals City, Hôtel Napoléon, La Roche-sur-Yon (Inter-Hotel)",FR,62.87,overcast clouds,46.6667,-1.4333
Bima,Lambitu Hotel,ID,78.46,moderate rain,-8.4667,118.7167
Annau,"Гостиница ""Уссат инженер""",TM,67.5,scattered clouds,37.8876,58.516
Limbang,Purnama Hotel,MY,75.31,moderate rain,4.75,115.0
Guerrero Negro,"Casa Laguna, Bed & Breakfast",MX,75.6,clear sky,27.9769,-114.0611
Tura,Hotel RIKMAN Continental,IN,69.57,clear sky,25.5198,90.2201
Lorengau,Lorengau Harbourside Hotel,PG,80.01,overcast clouds,-2.0226,147.2712
Faanui,Bora-Bora Pearl Beach Resort & Spa,PF,78.8,light rain,-16.4833,-151.75
Tonantins,Hotel Hortensias,BR,84.25,overcast clouds,-2.8731,-67.8022
Labuhan,DoubleFAG,ID,79.21,light rain,-6.8844,112.2051
Bubaque,"Casa Dora, Bubaque",GW,81.07,broken clouds,11.2833,-15.8333
Demba,Guest House Du Cinquantenaire,CD,70.39,light rain,-5.51,22.2667
Saint George,Best Western Plus Abbey Inn,US,73.94,clear sky,37.1041,-113.5841
Dickinson,Hampton Inn & Suites Houston/League City,US,72.03,broken clouds,29.4608,-95.0513
Ancud,Hotel Arena Gruesa,CL,77.23,clear sky,-41.8697,-73.8203
Tabas,شرکت معماری مهراز شایگان آراد,IR,78.03,few clouds,33.5959,56.9244
Asosa,Blendana Hotel Assosa,ET,60.01,light rain,10.0667,34.5333
Moyale,La Tahzan Guest House,KE,73.62,overcast clouds,3.5167,39.0584
San Ramon,San Ramon Marriott,US,67.77,clear sky,37.7799,-121.978
Xai-Xai,Complexo da Familia,MZ,73.54,overcast clouds,-25.0519,33.6442
Mantua,Hotel la Favorita,IT,67.15,few clouds,45.1667,10.7833
Winslow,Best Western Plus Winslow Inn,US,61.43,scattered clouds,35.0242,-110.6974
Port Hedland,The Esplanade Hotel,AU,68.05,clear sky,-20.3167,118.5667
East London,Tu Casa,ZA,68.94,few clouds,-33.0153,27.9116
Challans,Citotel Le Challans,FR,64.6,overcast clouds,46.8436,-1.8749
Pasighat,Siang Guest House,IN,69.98,clear sky,28.0667,95.3333
Koumac,Le Monitel,NC,71.91,scattered clouds,-20.5667,164.2833
Dwarka,Hotel Narayan Avezika Comfort,IN,83.23,clear sky,22.2394,68.9678
Buraydah,Mövenpick Qassim,SA,82.85,clear sky,26.326,43.975
Riyadh,"InterContinental Riyadh, an IHG Hotel",SA,82.54,broken clouds,24.6877,46.7219
San Cristobal,Pirineos,VE,78.98,overcast clouds,7.7669,-72.225
Kilindoni,Bustani B&B,TZ,76.5,few clouds,-7.9139,39.6668
Belmonte,Pousada Monte Carmelo O Pão,BR,79.75,scattered clouds,-15.8631,-38.8828
Ascension,Highland Inn,US,80.04,clear sky,30.2169,-90.9001
Lillooet,Hotel Victoria,CA,72.37,clear sky,50.6856,-121.942
Waingapu,Pondok Wisata Elim,ID,79.68,overcast clouds,-9.6567,120.2641
Ilo,Torreblanca Hotel,PE,67.06,clear sky,-17.6394,-71.3375
Bereda,Pazo de Verdes,ES,62.15,scattered clouds,43.2686,-7.5406
Ishigaki,Hotel Peace Land Ishigakijima,JP,71.73,mist,24.3448,124.1572
Portland,Embassy Suites by Hilton Portland Downtown,US,66.16,broken clouds,45.5234,-122.6762
Colonia,Mauritius Hotel & Therme,DE,65.97,light rain,50.9333,6.95
Sola,Leumerus Bungalows,VU,74.07,broken clouds,-13.8833,167.55
Saint-Joseph,"""Plantation Bed and Breakfast",RE,71.98,scattered clouds,-21.3667,55.6167
Chirongui,La Villa Mahatsara,YT,76.93,clear sky,-12.9319,45.1483
Tagusao,Caycay future beach resort,PH,80.17,overcast clouds,9.1924,117.8141
Odweyne,Eng Hiirey House,SO,75.78,broken clouds,9.4092,45.064
Ouadda,,CF,69.67,light rain,8.0777,22.4007
Nishihara,Minshuku Agaihama,JP,72.68,broken clouds,26.1842,127.7558
Camabatela,Comércio e Prestação de Serviços,AO,66.36,light rain,-8.1881,15.375
Huarmey,Hotel Miramar,PE,67.17,broken clouds,-10.0681,-78.1522
Celestun,Posada Lilia,MX,86.14,broken clouds,20.8667,-90.4
Nanchital,Hotel Estancia Mexicana,MX,80.62,broken clouds,18.0667,-94.4
Hobyo,Halane Hotel and Restaurent,SO,78.35,scattered clouds,5.3505,48.5268
Bandarbeyla,JABIR HOTEL,SO,77.95,clear sky,9.4942,50.8122
Simpang,Budidaya Pembesaran Ikan,ID,74.12,overcast clouds,-1.2667,104.0833
Sakakah,Fakhamat Al Orjoana Apartment,SA,85.57,overcast clouds,29.9697,40.2064
Kita,Hôtel Chat Rouge,ML,81.3,light rain,13.0349,-9.4895
Hurbanovo,Twins,SK,61.05,overcast clouds,47.8698,18.1923
Muzaffarabad,Pearl Continental Muzaffarabad,PK,64.2,overcast clouds,34.37,73.4711
Seminole,Ono Hot Dog Cart and Catering Lemonade and Shaved Hawaiian Ice,US,88.41,few clouds,28.7086,-81.2081
Kitgum,Jaflo Gardens Hotel,UG,67.23,moderate rain,3.2783,32.8867
Gua Musang,Mines Inn Hotel,MY,74.26,light rain,4.8823,101.9644
Aloleng,Steve Walden and Emma Sison-Walden Residence,PH,79.88,scattered clouds,16.1307,119.7824
Roanoke Rapids,Hampton Inn Roanoke Rapids,US,74.89,broken clouds,36.4615,-77.6542
Namibe,Hotel Chik Chik Namibe,AO,68.09,overcast clouds,-15.1961,12.1522
Kudahuvadhoo,Niyama Private Islands Maldives,MV,81.0,overcast clouds,2.6708,72.8944
Trujillo,Casa Andina Standard Trujillo Plaza,PE,62.56,fog,-8.116,-79.03
Abu Samrah,,SY,72.41,broken clouds,35.3029,37.1841
Sigmaringen,Jägerhof,DE,60.64,overcast clouds,48.0833,9.2167
Santa Rosalia,Hotel Las Casitas Santa Rosalia,MX,77.22,clear sky,27.3167,-112.2833
Virginia Beach,Hilton Virginia Beach Oceanfront,US,76.05,broken clouds,36.8529,-75.978
Presidencia Roque Saenz Pena,Hotel Gualok,AR,62.83,moderate rain,-26.7852,-60.4388
Kirkuk,Cihad Oteli,IQ,82.06,clear sky,35.4681,44.3922
Wawa,,NG,79.02,scattered clouds,9.9022,4.4192
Gumdag,,TM,67.96,clear sky,39.2061,54.5906
Jalingo,Debright Motel,NG,79.36,scattered clouds,8.8833,11.3667
Qarqin,Hayetmurad,AF,72.3,scattered clouds,37.4185,66.0436
Del Rio,"Holiday Inn Express & Suites del Rio, an IHG Hotel",US,66.22,light intensity drizzle,29.3627,-100.8968
Ampanihy,HOTEL SHARRON AMPANIHY OUEST,MG,70.25,clear sky,-24.7,44.75
Orcopampa,Happy Wasi,PE,63.36,scattered clouds,-15.2661,-72.3417
Kalmunai,VS Villa,LK,78.28,overcast clouds,7.4167,81.8167
Vanderhoof,Vanderhoof Inn,CA,60.04,clear sky,54.0166,-124.0198
Kang,Kang Ultra Stop,BW,69.89,overcast clouds,-23.6752,22.7876
Epe,MAGVILLE HOTEL,NG,77.38,light rain,6.5841,3.9834
Ilhabela,Ilha Flat Hotel,BR,73.31,overcast clouds,-23.7781,-45.3581
Payakumbuh,Dalimo Homestay,ID,68.77,overcast clouds,-0.2202,100.6308
Tezu,Circuit House,IN,69.12,clear sky,27.9167,96.1667
Candelaria,Casa de Provincia,PH,76.39,scattered clouds,13.9311,121.4233
Padang,Mercure Padang,ID,75.25,overcast clouds,-0.9492,100.3543
Macia,Hotel Taskin Macia,MZ,72.57,scattered clouds,-25.0269,33.0989
Rio Tercero,Hospedaje Las Violetas,AR,67.44,overcast clouds,-32.173,-64.1141
Aswan,Nuba Nile,EG,85.3,clear sky,24.0934,32.907
Sabha,محطة ام الارانب -سبها مواصلات,LY,72.03,clear sky,27.0377,14.4283
Sangmelima,gamestar hotel,CM,68.61,moderate rain,2.9333,11.9833
Coburg,Vienna House Easy Coburg,DE,61.59,few clouds,50.2667,10.9667
Saint-Pierre,Alize Plage,RE,73.08,overcast clouds,-21.3393,55.4781
Dakar,Novotel Dakar,SN,87.93,clear sky,14.6937,-17.4441
Catamarca,Amerian Catamarca Park Hotel,AR,73.06,few clouds,-28.4696,-65.7852
Nambucca Heads,Marcel Towers Holiday Apartments,AU,63.18,overcast clouds,-30.65,153.0
Tual,Grand Vilia Hotel,ID,82.99,overcast clouds,-5.6667,132.75
Chilca,Playa Punta Yaya - Las Salinas,PE,63.82,scattered clouds,-12.5211,-76.7372
Paita,Hotel Náutico de Paita,PE,69.53,scattered clouds,-5.0892,-81.1144
Rigaud,Motel Belair,CA,61.86,moderate rain,45.4793,-74.3024
Nairobi,Hilton Nairobi,KE,71.47,broken clouds,-1.2833,36.8167
Ballina,Ramada Hotel & Suites by Wyndham Ballina Byron,AU,62.02,light rain,-28.8667,153.5667
Alyangula,Groote Eylandt Lodge,AU,79.75,broken clouds,-13.8483,136.4192
Gweta,Gweta Lodge,BW,82.42,overcast clouds,-20.1833,25.2333
Ilorin,SITY INN,NG,80.28,few clouds,8.5,4.55
Lompoc,"Holiday Inn Express Lompoc, an IHG Hotel",US,72.57,clear sky,34.6391,-120.4579
Lakatoro,Lakatoro Palm Lodge,VU,78.69,few clouds,-16.0999,167.4164
Manadhoo,Bon Abri maldives,MV,80.2,overcast clouds,5.7667,73.3833
Kieta,Uruna Bay Retreat,PG,77.83,light rain,-6.2167,155.6333
Suleja,Capy Motel,NG,83.39,few clouds,9.1758,7.1808
Cacequi,Hotel e Churrascaria Gaúcho,BR,73.6,overcast clouds,-29.8836,-54.825
Daru,Daru Lodge,PG,79.3,overcast clouds,-9.0763,143.2092
Chenzhou,Thank Inn Chain Hotel hunan chenzhou beihu district wuling square,CN,62.92,overcast clouds,25.8,113.0333
Dingle,SEGAYA PROPERTY,PH,75.52,overcast clouds,10.9995,122.6711
Poquoson,Whitehouse Cove,US,76.03,broken clouds,37.1224,-76.3458
Vanimo,Vahmoneh Lodge Vanimo,PG,76.73,overcast clouds,-2.6741,141.3028
North Bend,Red Lion Hotel Coos Bay,US,68.16,clear sky,43.4065,-124.2243
Tougue,,GN,70.16,broken clouds,11.4667,-11.6
Kulhudhuffushi,Haajy Guest House 1,MV,77.52,overcast clouds,6.6221,73.07
Graham,Rainier View Adult Rv Park,US,62.22,overcast clouds,47.0529,-122.2943
Peniche,Hotel Star inn Peniche,PT,72.28,broken clouds,39.3558,-9.3811
San Roque,Hotel Guadacorte Park,ES,70.63,broken clouds,36.2107,-5.3842
Vilhena,Hotel Mirage,BR,88.02,few clouds,-12.7406,-60.1458
Ndele,,CF,68.34,light rain,8.4109,20.6473
Lae,Phils Hotel,PG,75.24,heavy intensity rain,-6.7221,146.9847
Samfya,Chita Lodge Samfya,ZM,79.59,broken clouds,-11.3649,29.5565
Rio Grande,Hotel Atlântico Rio Grande,BR,62.71,overcast clouds,-32.035,-52.0986
Udon Thani,P.T.K. Apartment,TH,66.87,few clouds,17.3333,102.8333
Pacific Grove,Lovers Point Inn,US,69.39,clear sky,36.6177,-121.9166
Lianzhou,Qingcheng Tourism Industry,CN,65.75,overcast clouds,24.7811,112.3825
Urucara,Pousada Maria Bonita,BR,85.39,moderate rain,-2.5364,-57.76
Puerto Maldonado,Wasai Hotel,PE,77.4,broken clouds,-12.6,-69.1833
Ugoofaaru,Ungoofaaru Inn,MV,80.92,light rain,5.6667,73.0
Junnar,Hotel Anand,IN,72.86,moderate rain,19.2,73.8833
Buenos Aires,Hotel NH Buenos Aires City,AR,71.01,few clouds,-34.6132,-58.3772
Namatanai,Seagulls Inn Namatani,PG,78.62,light rain,-3.6667,152.4333
Nakamura,Hotel Crown Hills Nakamura,JP,61.32,overcast clouds,32.9833,132.9333
Broken Hill,Royal Exchange Hotel,AU,62.55,overcast clouds,-31.95,141.4333
Nago,Hotel Yugaf Inn Okinawa,JP,72.03,overcast clouds,26.5881,127.9761
Esmeraldas,Forasteiro Pousada,BR,88.11,overcast clouds,-19.7625,-44.3139
Cairns,Mantra Trilogy Cairns,AU,73.35,broken clouds,-16.9167,145.7667
Nagato,いそう庵,JP,61.05,overcast clouds,34.3833,131.2
Ocean Springs,Golden Nugget Biloxi Hotel & Casino,US,84.22,scattered clouds,30.4113,-88.8278
Inirida,Fuente del Guania Hotel de Lujo,CO,83.97,overcast clouds,3.8653,-67.9239
Omboue,Hotel Olako,GA,78.22,few clouds,-1.5746,9.2618
Mahajanga,Hôtel Restaurant Gourmand Coco Lodge Majunga,MG,77.02,few clouds,-15.7167,46.3167
Amudat,Silent Night Hotel,UG,76.87,broken clouds,1.95,34.95
Sochi,Sochi Briz,RU,60.89,overcast clouds,43.6,39.7303
San Vicente,Complejo Turístico Farelluk,AR,76.53,overcast clouds,-26.6167,-54.1333
Karratha,ibis Styles Karratha,AU,74.64,clear sky,-20.7377,116.8463
Dallas,"Hotel Indigo Dallas Downtown, an IHG Hotel",US,72.14,broken clouds,32.7668,-96.7836
Nanakuli,Camp Pālehua,US,81.43,clear sky,21.3906,-158.1547
Mount Darwin,,ZW,70.83,overcast clouds,-16.7725,31.5838
Manono,Hotel hewa bora,CD,71.56,light rain,-7.3,27.4167
Angoche,Guest House HESADA,MZ,76.28,clear sky,-16.2325,39.9086
Mubende,Nakayima Hotel,UG,61.56,overcast clouds,0.5606,31.39
Socorro,guarderia imss papalote,US,61.03,overcast clouds,31.6546,-106.3033
Alofi,Taloa Heights,NU,71.49,few clouds,-19.0595,-169.9187
Jega,ALH. Nasiru Ibrahim,NG,84.96,clear sky,12.2175,4.3792
Arlit,Case de Passage De la Prefecture,NE,89.28,clear sky,18.7369,7.3853
Coahuayana,El rranchito michuacan de ocampos,MX,87.13,light rain,18.7333,-103.6833
Najran,محمد هادي ال فطيح,SA,74.05,overcast clouds,17.4924,44.1277
Waynesville,Best Western Smoky Mountain Inn,US,70.86,few clouds,35.4887,-82.9887
Segou,Comme chez soi,ML,88.41,overcast clouds,13.4317,-6.2157
Basoko,Jackyna Hotel,CD,72.68,overcast clouds,1.2391,23.616
Redmond,Seattle Marriott Redmond,US,66.6,few clouds,47.674,-122.1215
Tucupita,Hotel Tucupita Su​ite C.A.,VE,87.6,overcast clouds,9.0622,-62.051
Kattivakkam,Euronova Freezer,IN,84.29,overcast clouds,13.2167,80.3167
Vincennes,Aparthotel Adagio Paris Vincennes,FR,63.97,broken clouds,48.85,2.4333
Ratzeburg,"Hotel ""Der Seehof""",DE,62.71,broken clouds,53.7,10.7667
Pak Phanang,Green Park Inn Hotel,TH,76.73,overcast clouds,8.3511,100.202
Portmore,Grand Hotel Excelsior Port Royal,JM,87.76,few clouds,17.9702,-76.8672
Ixtapa,hotel la terminal,MX,87.22,few clouds,20.7,-105.2
Jieshi,Yuehai Hotel,CN,69.75,light rain,22.8134,115.8257
Bukama,,CD,80.06,broken clouds,-9.2,25.85
Mashhad,Khanye Sabz Hotel,IR,64.54,clear sky,36.297,59.6062
Lasa,Pension Feldgärtenhof,IT,61.68,clear sky,46.6166,10.7002
Laguna De Perlas,Hotel Best View,NI,86.09,broken clouds,12.3429,-83.6712
Noumea,Hôtel Le Lagon,NC,75.99,overcast clouds,-22.2763,166.4572
Rasht,Travellers Camping,IR,64.22,light intensity drizzle,37.2808,49.5832
Ambilobe,Hôtel & Restaurant DIANA Ambilobe,MG,69.91,clear sky,-13.2,49.05
Malakal,Nile Palace Hotel,SS,73.11,broken clouds,9.5334,31.6605
Mancio Lima,Motel Asas Do Desejo,BR,87.87,broken clouds,-7.6142,-72.8958
Puerto Carreno,Casa Hotel Victoria,CO,89.58,scattered clouds,6.189,-67.4859
Nioro,,GM,81.05,scattered clouds,13.35,-15.75
Dzaoudzi,Le Rocher,YT,76.89,clear sky,-12.7887,45.2699
Aiken,Aiken Cottages,US,82.11,clear sky,33.5835,-81.5998
Hua Hin,"InterContinental Hua Hin Resort, an IHG Hotel",TH,75.47,overcast clouds,12.5707,99.9588
Hatillo,El Buen Hotel,PR,86.56,overcast clouds,18.4863,-66.8254
Camacupa,,AO,63.55,moderate rain,-12.0167,17.4833
Tamiahua,Mission Of The Sun Hotel,MX,85.57,scattered clouds,21.2667,-97.45
Durban,Hilton Durban,ZA,73.92,overcast clouds,-29.8579,31.0292
Kuito,Herdeiros de Antunes Capusso,AO,62.22,light rain,-12.3833,16.9333
Westport,The Westport Inn,US,66.74,broken clouds,41.1415,-73.3579
Ambon,Swiss-Belhotel Ambon,ID,75.34,few clouds,-3.6954,128.1814
Santa Barbara,Upper Ballard Campground,US,77.31,clear sky,34.7333,-120.0343
Isiro,Guest House Hewa Bora,CD,66.81,broken clouds,2.7739,27.616
Rengo,Hostal Cartagena,CL,66.52,clear sky,-34.4167,-70.8667
Sukumo,Sukumojo,JP,62.6,overcast clouds,32.9333,132.7333
Turayf,Turaif,SA,75.45,clear sky,31.6725,38.6637
Mae Tha,Pichamol Resort and Nursing Home,TH,74.44,broken clouds,18.4646,99.1403
Inongo,Hotel Du Lac,CD,75.11,scattered clouds,-1.95,18.2667
Effingham,Countryside Village,US,81.03,overcast clouds,32.3669,-81.3332
Srikakulam,Micro Systems,IN,77.0,overcast clouds,18.3,83.9
Botwood,Exploits Inn & Suites,CA,60.91,overcast clouds,49.1499,-55.3482
Bayir,Hotel Babadag,TR,68.52,clear sky,37.2687,28.2167
Somoto,El Rosario Hotel,NI,82.11,broken clouds,13.4808,-86.5821
Llata,Hospedaje Familia Collazos Espinoza,PE,60.51,overcast clouds,-9.4167,-76.7833
Mirante Do Paranapanema,Pousada Estrela de Mirante do Paranapanema,BR,89.08,overcast clouds,-22.2919,-51.9064
Nhulunbuy,East Arnhem Real Estate,AU,75.81,clear sky,-12.2333,136.7667
Ebolowa,Florence Hotel Ebolowa,CM,69.48,light rain,2.9,11.15
Ghanzi,Ghanzi Farmhouse,BW,72.73,clear sky,-21.5667,21.7833
Sarai Naurang,Taj Mahal hotel,PK,78.04,clear sky,32.8259,70.7814
Troyes,Logis Hôtel des Sources,FR,63.37,moderate rain,48.3333,4.0833
Poya,,NC,70.99,scattered clouds,-21.35,165.15
Duku,,NG,79.47,clear sky,11.2361,4.9073
Mokobeng,Omphile B. Molefhe,BW,75.7,overcast clouds,-22.9965,27.6678
Amboasary,Le Bon Samaritain,MG,70.41,clear sky,-25.0333,46.3833
Bilma,Expeditions Ténére voyages,NE,85.08,clear sky,18.6853,12.9164
Sabang,Hotel Citra,ID,80.73,moderate rain,5.8933,95.3214
Plettenberg Bay,Thanda Vista B&B,ZA,62.96,overcast clouds,-34.0527,23.3716
Carballo,Pazo do Souto,ES,65.89,clear sky,43.213,-8.691
Cockburn Town,Osprey Beach Hotel,TC,81.55,clear sky,21.4612,-71.1419
Oistins,Butterfly Beach Hotel,BB,87.89,scattered clouds,13.0667,-59.5333
Pangani,Safari Mashariki Lodge,TZ,74.52,scattered clouds,-5.4333,38.9667
Boa Vista,Aipana Plaza Hotel,BR,87.78,light rain,2.8197,-60.6733
Palizada,Hotel San Joaquín Palizada,MX,88.29,overcast clouds,18.25,-92.0833
Harihar,My Home,IN,72.59,overcast clouds,14.5167,75.8
Kloulklubed,Storyboard Beach Resort,PW,77.5,overcast clouds,7.0419,134.2556
Fayaoue,Chez Dydyce Guesthouse,NC,75.27,few clouds,-20.65,166.5333
Santo Antonio Do Sudoeste,Hotel Frontera,BR,76.55,overcast clouds,-26.0736,-53.7253
Sanjwal,لبیک یارسول اللہ ہوٹل,PK,72.34,clear sky,33.7608,72.4336
Marzuq,حيد القفلة,YE,69.55,clear sky,14.4,46.4667
Abha,Abha Hotel,SA,62.85,clear sky,18.2164,42.5053
Morondava,La Case Bambou,MG,77.43,clear sky,-20.2833,44.2833
Cravo Norte,Hotel Potosí Los Mirtos,CO,84.9,overcast clouds,6.3017,-70.2041
San Quintin,Don Eddie's Sport Fishing Center,MX,72.84,clear sky,30.4833,-115.95
Nichinan,Guest House Aki,JP,63.88,light rain,31.6,131.3667
